trip_id,route_id,route_shor,stop_id,stop_name,stop_lat,stop_lon,hour,minute,sec,stop_order
"49709102","102715","162","997",6th Ave & Union St,47.610092199999997,-122.333382000000000,"5","52","58","28"
"49709102","102715","162","1120",Pine St & 4th Ave,47.611103100000001,-122.338027999999994,"5","53","34","29"
"49709102","102715","162","300",2nd Ave & Pike St,47.608646399999998,-122.338431999999997,"5","54","0","30"
"49709102","102715","162","340",2nd Ave & Marion St,47.604465500000003,-122.334625000000003,"5","56","14","31"
"49709102","102715","162","361",2nd Ave & James St,47.602477999999998,-122.332808999999997,"5","57","17","32"
"49709102","102715","162","390",2nd Ave Ext S & S Jackson St,47.599266100000001,-122.329857000000004,"5","59","0","33"
"49709129","102715","162","250",2nd Ave & Bell St,47.613704700000000,-122.345253000000000,"15","27","0","1"
"49709129","102715","162","260",2nd Ave & Lenora St,47.612163500000001,-122.342628000000005,"15","28","21","2"
"49709129","102715","162","300",2nd Ave & Pike St,47.608646399999998,-122.338431999999997,"15","31","0","3"
"49709129","102715","162","340",2nd Ave & Marion St,47.604465500000003,-122.334625000000003,"15","34","7","4"
"49709129","102715","162","361",2nd Ave & James St,47.602477999999998,-122.332808999999997,"15","35","36","5"
"49709129","102715","162","390",2nd Ave Ext S & S Jackson St,47.599266100000001,-122.329857000000004,"15","38","0","6"
"40803300","102638",First Hill Streetcar,"1551",S Jackson St & Occidental Ave Walk,47.599273699999998,-122.333281999999997,"5","43","0","1"
"40803300","102638",First Hill Streetcar,"1652",S Jackson St & 5th Ave S,47.599124900000000,-122.327286000000001,"5","45","0","2"
"40803300","102638",First Hill Streetcar,"1662",S Jackson St & 8th Ave S,47.599124900000000,-122.323395000000005,"5","47","0","3"
"40803300","102638",First Hill Streetcar,"27420",E Yesler Way & Broadway,47.601756999999999,-122.320296999999997,"5","56","0","6"
"40803300","102638",First Hill Streetcar,"41904",Broadway & E Terrace St,47.605449700000001,-122.320648000000006,"5","58","54","7"
"40803300","102638",First Hill Streetcar,"41908",Broadway & E Marion St,47.610157000000001,-122.320662999999996,"6","2","17","8"
"40803300","102638",First Hill Streetcar,"41970",Broadway & E Pine St,47.615165699999999,-122.320701999999997,"6","5","52","9"
"40803300","102638",First Hill Streetcar,"11175",Broadway & E Howell St,47.618156399999997,-122.320746999999997,"6","8","0","10"
"40803381","102638",First Hill Streetcar,"11175",Broadway & E Howell St,47.618156399999997,-122.320746999999997,"6","13","0","1"
"40803381","102638",First Hill Streetcar,"41980",Broadway & E Pike St,47.614139600000001,-122.320885000000004,"6","15","7","2"
"40803381","102638",First Hill Streetcar,"41986",Broadway & Marion St,47.609909100000003,-122.320869000000002,"6","17","21","3"
"40803381","102638",First Hill Streetcar,"41988",Broadway & Terrace St,47.604641000000001,-122.320853999999997,"6","20","7","4"
"40803381","102638",First Hill Streetcar,"27500",E Yesler Way & Broadway,47.601623500000002,-122.319832000000005,"6","22","0","5"
"40803381","102638",First Hill Streetcar,"1661",S Jackson St & 8th Ave S,47.599266100000001,-122.323340999999999,"6","32","0","8"
"40803381","102638",First Hill Streetcar,"1651",S Jackson St & 5th Ave S,47.599262199999998,-122.327263000000002,"6","34","0","9"
"40803381","102638",First Hill Streetcar,"1551",S Jackson St & Occidental Ave Walk,47.599273699999998,-122.333281999999997,"6","38","0","10"
"49190175","102615",E Line,"1610",Prefontaine Pl S & Yesler Way,47.601657899999999,-122.329941000000005,"20","0","0","1"
"49190175","102615",E Line,"538",3rd Ave & Columbia St,47.604190799999998,-122.332588000000001,"20","1","30","2"
"49190175","102615",E Line,"558",3rd Ave & Seneca St,47.607051800000001,-122.335212999999996,"20","3","5","3"
"49190175","102615",E Line,"578",3rd Ave & Pike St,47.610485099999998,-122.338356000000005,"20","5","0","4"
"49190175","102615",E Line,"600",3rd Ave & Virginia St,47.612995099999999,-122.341742999999994,"20","5","45","5"
"49190175","102615",E Line,"605",3rd Ave & Bell St,47.615119900000003,-122.345337000000001,"20","6","27","6"
"49190175","102615",E Line,"6236",7th Ave N & Denny Way,47.619098700000002,-122.343575000000001,"20","7","32","7"
"49190175","102615",E Line,"6237",7th Ave N & Harrison St,47.621894800000000,-122.343506000000005,"20","8","9","8"
"49190176","102615",E Line,"6176",7th Ave N & Thomas St,47.621055599999998,-122.343841999999995,"21","53","34","28"
"49190176","102615",E Line,"7430",Wall St & 5th Ave,47.617431600000003,-122.345344999999995,"21","54","32","29"
"49190176","102615",E Line,"400",3rd Ave & Bell St,47.614444700000000,-122.344513000000006,"21","55","29","30"
"49190176","102615",E Line,"420",3rd Ave & Virginia St,47.612438200000000,-122.341110000000000,"21","56","12","31"
"49190176","102615",E Line,"431",3rd Ave & Pike St,47.609790799999999,-122.337958999999998,"21","57","0","32"
"49190176","102615",E Line,"468",3rd Ave & Seneca St,47.606502499999998,-122.334937999999994,"21","59","6","33"
"49190176","102615",E Line,"490",3rd Ave & Cherry St,47.603580500000000,-122.332274999999996,"22","0","57","34"
"49190176","102615",E Line,"515",3rd Ave S & S Main St,47.600238800000000,-122.330376000000001,"22","3","0","35"
"49190321","102581",D Line,"1610",Prefontaine Pl S & Yesler Way,47.601657899999999,-122.329941000000005,"20","0","0","1"
"49190321","102581",D Line,"538",3rd Ave & Columbia St,47.604190799999998,-122.332588000000001,"20","1","30","2"
"49190321","102581",D Line,"558",3rd Ave & Seneca St,47.607051800000001,-122.335212999999996,"20","3","5","3"
"49190321","102581",D Line,"578",3rd Ave & Pike St,47.610485099999998,-122.338356000000005,"20","5","0","4"
"49190321","102581",D Line,"600",3rd Ave & Virginia St,47.612995099999999,-122.341742999999994,"20","6","49","5"
"49190321","102581",D Line,"605",3rd Ave & Bell St,47.615119900000003,-122.345337000000001,"20","8","32","6"
"49190321","102581",D Line,"1690",3rd Ave & Vine St,47.616870900000002,-122.348297000000002,"20","9","56","7"
"49190321","102581",D Line,"2330",1st Ave N & Denny Way,47.618904100000002,-122.355362000000000,"20","13","35","8"
"49190321","102581",D Line,"2360",1st Ave N & Republican St,47.623187999999999,-122.355309000000005,"20","15","51","9"
"49190323","102581",D Line,"13910",W Mercer St & 3rd Ave W,47.624534599999997,-122.360718000000006,"21","17","20","18"
"49190323","102581",D Line,"2672",Queen Anne Ave N & W Mercer St,47.624061599999997,-122.356812000000005,"21","18","0","19"
"49190323","102581",D Line,"2200",Queen Anne Ave N & W John St,47.619213100000003,-122.356849999999994,"21","20","40","20"
"49190323","102581",D Line,"2220",3rd Ave & Cedar St,47.616874699999997,-122.348624999999998,"21","24","24","21"
"49190323","102581",D Line,"400",3rd Ave & Bell St,47.614444700000000,-122.344513000000006,"21","26","26","22"
"49190323","102581",D Line,"420",3rd Ave & Virginia St,47.612438200000000,-122.341110000000000,"21","28","6","23"
"49190323","102581",D Line,"431",3rd Ave & Pike St,47.609790799999999,-122.337958999999998,"21","30","0","24"
"49190323","102581",D Line,"468",3rd Ave & Seneca St,47.606502499999998,-122.334937999999994,"21","32","6","25"
"49190323","102581",D Line,"490",3rd Ave & Cherry St,47.603580500000000,-122.332274999999996,"21","33","57","26"
"49190323","102581",D Line,"1710",Terrace St & 5th Ave,47.602046999999999,-122.328254999999999,"21","36","0","27"
"49190611","102576",C Line,"1565",Columbia St & Western Ave,47.602745100000000,-122.336074999999994,"20","39","51","17"
"49190611","102576",C Line,"539",3rd Ave & Marion St,47.604804999999999,-122.333160000000007,"20","40","30","18"
"49190611","102576",C Line,"558",3rd Ave & Seneca St,47.607051800000001,-122.335212999999996,"20","41","0","19"
"49190611","102576",C Line,"578",3rd Ave & Pike St,47.610485099999998,-122.338356000000005,"20","43","2","20"
"49190611","102576",C Line,"600",3rd Ave & Virginia St,47.612995099999999,-122.341742999999994,"20","44","45","21"
"49190611","102576",C Line,"18440",Blanchard St & 6th Ave,47.615856200000003,-122.340880999999996,"20","46","49","22"
"49190611","102576",C Line,"26690",Westlake Ave & 9th Ave,47.618267099999997,-122.338341000000000,"20","48","22","23"
"49190611","102576",C Line,"26715",Westlake Ave N & Harrison St,47.621849099999999,-122.338356000000005,"20","50","10","24"
"49190612","102576",C Line,"26641",Westlake Ave N & Mercer St,47.624153100000001,-122.338547000000005,"21","24","53","2"
"49190612","102576",C Line,"26645",Westlake Ave N & Harrison St,47.621379900000001,-122.338570000000004,"21","26","0","3"
"49190612","102576",C Line,"26665",Westlake Ave & 9th Ave,47.617794000000004,-122.338463000000004,"21","28","20","4"
"49190612","102576",C Line,"420",3rd Ave & Virginia St,47.612438200000000,-122.341110000000000,"21","32","44","5"
"49190612","102576",C Line,"431",3rd Ave & Pike St,47.609790799999999,-122.337958999999998,"21","35","0","6"
"49190612","102576",C Line,"468",3rd Ave & Seneca St,47.606502499999998,-122.334937999999994,"21","37","23","7"
"49190612","102576",C Line,"481",3rd Ave & Columbia St,47.604263300000000,-122.332901000000007,"21","39","0","8"
"49190612","102576",C Line,"1558",Columbia St & Alaskan Way,47.602470400000001,-122.337119999999999,"21","39","40","9"
"47418053","102574","40","26641",Westlake Ave N & Mercer St,47.624153100000001,-122.338547000000005,"7","10","17","46"
"47418053","102574","40","26645",Westlake Ave N & Harrison St,47.621379900000001,-122.338570000000004,"7","11","0","47"
"47418053","102574","40","26665",Westlake Ave & 9th Ave,47.617794000000004,-122.338463000000004,"7","12","50","48"
"47418053","102574","40","420",3rd Ave & Virginia St,47.612438200000000,-122.341110000000000,"7","16","18","49"
"47418053","102574","40","430",3rd Ave & Pine St,47.610790299999998,-122.338875000000002,"7","17","28","50"
"47418053","102574","40","450",3rd Ave & Union St,47.608253499999996,-122.336547999999993,"7","19","0","51"
"47418053","102574","40","480",3rd Ave & Marion St,47.604995700000003,-122.333572000000004,"7","21","29","52"
"47418053","102574","40","500",3rd Ave & James St,47.602817500000000,-122.331581000000000,"7","23","8","53"
"47418053","102574","40","515",3rd Ave S & S Main St,47.600238800000000,-122.330376000000001,"7","25","0","54"
"47418107","102574","40","619",4th Ave S & S Jackson St,47.599826800000002,-122.328971999999993,"6","15","0","1"
"47418107","102574","40","531",3rd Ave & James St,47.602642099999997,-122.331183999999993,"6","17","16","2"
"47418107","102574","40","548",3rd Ave & Madison St,47.605541199999998,-122.333832000000001,"6","19","32","3"
"47418107","102574","40","570",3rd Ave & Union St,47.608688399999998,-122.336699999999993,"6","22","0","4"
"47418107","102574","40","590",3rd Ave & Pine St,47.611137399999997,-122.338950999999994,"6","23","9","5"
"47418107","102574","40","600",3rd Ave & Virginia St,47.612995099999999,-122.341742999999994,"6","24","13","6"
"47418107","102574","40","18440",Blanchard St & 6th Ave,47.615856200000003,-122.340880999999996,"6","25","52","7"
"47418107","102574","40","26690",Westlake Ave & 9th Ave,47.618267099999997,-122.338341000000000,"6","27","6","8"
"47418107","102574","40","26715",Westlake Ave N & Harrison St,47.621849099999999,-122.338356000000005,"6","28","33","9"
"47799345","100495","193","12840",E Jefferson St & 12th Ave,47.606265999999998,-122.317108000000005,"15","41","35","2"
"47799345","100495","193","12860",Jefferson St & Broadway,47.606155399999999,-122.321167000000003,"15","43","0","3"
"47799345","100495","193","12880",Jefferson St & 9th Ave,47.604934700000001,-122.324089000000001,"15","47","0","4"
"47799345","100495","193","41955",9th Ave & Spring St,47.608989700000002,-122.327781999999999,"15","51","0","5"
"47799345","100495","193","11075",Boren Ave & Seneca St,47.610374499999999,-122.326210000000003,"15","52","58","6"
"47799345","100495","193","11085",Boren Ave & Madison St,47.608955399999999,-122.324912999999995,"15","54","0","7"
"47799345","100495","193","11087",Boren Ave & Columbia St,47.607593500000000,-122.323668999999995,"15","54","18","8"
"47799358","100495","193","3150",Seneca St & 8th Ave,47.609252900000001,-122.329841999999999,"8","49","38","9"
"47799358","100495","193","41981",9th Ave & Spring St,47.609188099999997,-122.328186000000002,"8","50","0","10"
"47799358","100495","193","41990",9th Ave & Marion St,47.607437099999999,-122.326590999999993,"8","51","13","11"
"47799358","100495","193","42000",9th Ave & Cherry St,47.606090500000001,-122.325362999999996,"8","52","9","12"
"47799358","100495","193","12910",9th Ave & Jefferson St,47.604873699999999,-122.324241999999998,"8","53","0","13"
"47799358","100495","193","12930",E Jefferson St & Broadway,47.606144000000000,-122.320228999999998,"8","55","9","14"
"47800721","100487","102","1215",Union St & 5th Ave,47.609828899999997,-122.334511000000006,"17","46","0","1"
"47800721","100487","102","1230",Union St & 4th Ave,47.609081300000000,-122.336287999999996,"17","47","22","2"
"47800721","100487","102","340",2nd Ave & Marion St,47.604465500000003,-122.334625000000003,"17","53","0","3"
"47800721","100487","102","361",2nd Ave & James St,47.602477999999998,-122.332808999999997,"17","54","32","4"
"47800721","100487","102","390",2nd Ave Ext S & S Jackson St,47.599266100000001,-122.329857000000004,"17","57","0","5"
"47800721","100487","102","99271",SODO Busway & S Royal Brougham Way,47.591812099999999,-122.327468999999994,"17","59","44","6"
"47800790","100487","102","99267",SODO Busway & S Royal Brougham Way,47.592014300000002,-122.327301000000006,"6","18","43","58"
"47800790","100487","102","30635",4th Ave S & S Royal Brougham Way,47.593341799999997,-122.328957000000003,"6","19","25","59"
"47800790","100487","102","620",4th Ave S & S Jackson St,47.598812100000004,-122.328902999999997,"6","21","0","60"
"47800790","100487","102","640",4th Ave & James St,47.603012100000001,-122.329978999999994,"6","23","28","61"
"47800790","100487","102","660",4th Ave & Madison St,47.606006600000001,-122.332710000000006,"6","25","27","62"
"47800790","100487","102","690",4th Ave & Union St,47.609836600000001,-122.336219999999997,"6","28","0","63"
"47800790","100487","102","1190",Pike St & 6th Ave,47.611034400000001,-122.334525999999997,"6","29","51","64"
"47800790","100487","102","11130",Pike St & Convention Pl,47.612369500000000,-122.331360000000004,"6","32","0","65"
"36841629","100479",Link light rail,"99260",Stadium Stn Rail & SODO Busway/S Royal Brougham Way,47.592285199999999,-122.326988000000000,"6","33","0","10"
"36841629","100479",Link light rail,"621",Intl District Stn & S Jackson St - 5th Avenue S - Bay A,47.598438299999998,-122.327820000000003,"6","35","0","11"
"36841629","100479",Link light rail,"532",Pioneer Sqr Stn & 3rd Av - James - Bay A,47.603198999999996,-122.331581000000000,"6","38","0","12"
"36841629","100479",Link light rail,"565",Univ St Stn & 3rd Av - Seneca Or University Street - Bay A,47.608245799999999,-122.336166000000006,"6","40","0","13"
"36841629","100479",Link light rail,"1121",Westlake Station & Pine St - 3rd 4th & 5th Avenue - Bay A,47.611759200000002,-122.335785000000001,"6","42","0","14"
"36841629","100479",Link light rail,"99603",Capitol Hill Link Station,47.619621299999999,-122.320037999999997,"6","44","0","15"
"36841742","100479",Link light rail,"99610",Capitol Hill Link Station,47.619560200000002,-122.320389000000006,"5","51","0","2"
"36841742","100479",Link light rail,"1108",Westlake Tunnel Station & Pine St - 3rd 4th & 5th Avenue - Bay C,47.611450200000000,-122.337531999999996,"5","54","0","3"
"36841742","100479",Link light rail,"455",University St Stn & 3rd Av - Seneca Or University Street - Bay C,47.607246400000001,-122.335753999999994,"5","57","0","4"
"36841742","100479",Link light rail,"501",Pioneer Sq Stn & 3rd Av - James - Bay C,47.602138500000002,-122.331055000000006,"6","0","0","5"
"36841742","100479",Link light rail,"623",Intl Distr Stn & S Jackson St - 5th Avenue S - Bay C,47.597660099999999,-122.328216999999995,"6","4","0","6"
"36841742","100479",Link light rail,"99101",Stadium Stn Rail & SODO Busway/S Royal Brougham Way,47.591823599999998,-122.327354000000000,"6","6","0","7"
"40421162","100459","218","905",Stewart St & Yale Ave N,47.619018599999997,-122.330169999999995,"15","37","0","1"
"40421162","100459","218","940",Stewart St & 9th Ave,47.615703600000003,-122.334457000000000,"15","40","0","2"
"40421162","100459","218","950",Stewart St & 7th Ave,47.614460000000001,-122.336074999999994,"15","41","7","3"
"40421162","100459","218","970",Stewart St & 4th Ave,47.611991900000000,-122.339271999999994,"15","43","21","4"
"40421162","100459","218","280",2nd Ave & Stewart St,47.610614800000000,-122.340248000000003,"15","44","29","5"
"40421162","100459","218","320",2nd Ave & Seneca St,47.606212599999999,-122.336205000000007,"15","48","0","6"
"40421162","100459","218","360",2nd Ave & Cherry St,47.603019699999997,-122.333281999999997,"15","51","13","7"
"40421162","100459","218","375",2nd Ave Ext S & Yesler Way,47.601253499999999,-122.331688000000000,"15","53","0","8"
"40422095","100459","218","620",4th Ave S & S Jackson St,47.598812100000004,-122.328902999999997,"8","41","0","4"
"40422095","100459","218","628",4th Ave S & S Washington St,47.601219200000003,-122.328902999999997,"8","42","14","5"
"40422095","100459","218","648",4th Ave & Cherry St,47.604320500000000,-122.331169000000003,"8","44","1","6"
"40422095","100459","218","670",4th Ave & Seneca St,47.607498200000002,-122.334075999999996,"8","45","55","7"
"40422095","100459","218","700",4th Ave & Pike St,47.610950500000001,-122.337249999999997,"8","48","0","8"
"40422095","100459","218","1040",Olive Way & 6th Ave,47.613025700000001,-122.336333999999994,"8","50","36","9"
"40422095","100459","218","1050",Olive Way & 8th Ave,47.613937399999998,-122.334159999999997,"8","52","0","10"
"49189079","100447","49","1180",Pike St & 4th Ave,47.610073100000001,-122.336838000000000,"6","36","0","1"
"49189079","100447","49","1000",Pine St & 9th Ave,47.613414800000001,-122.332138000000000,"6","38","7","2"
"49189079","100447","49","11140",E Pine St & Summit Ave,47.615158100000002,-122.324637999999993,"6","40","14","3"
"49189079","100447","49","11150",E Pine St & Harvard Ave,47.615161899999997,-122.321617000000003,"6","41","0","4"
"49189079","100447","49","11180",Broadway  E & E John St,47.620155300000000,-122.320785999999998,"6","43","12","5"
"49189079","100447","49","11190",Broadway  E & E Harrison St,47.622196199999998,-122.320815999999994,"6","44","2","6"
"49189079","100447","49","11200",Broadway  E & E Mercer St,47.624610900000000,-122.320839000000007,"6","45","0","7"
"49189143","100447","49","11040",Broadway  E & E Republican St,47.622894299999999,-122.321014000000005,"6","14","53","15"
"49189143","100447","49","11050",Broadway  E & E Thomas St,47.620815299999997,-122.320992000000004,"6","15","41","16"
"49189143","100447","49","11060",Broadway & E Denny Way,47.618537900000000,-122.320946000000006,"6","16","33","17"
"49189143","100447","49","11070",Broadway & E Pine St,47.616191899999997,-122.320922999999993,"6","17","27","18"
"49189143","100447","49","11080",E Pine St & Broadway,47.615302999999997,-122.321494999999999,"6","18","0","19"
"49189143","100447","49","11090",E Pine St & Belmont Ave,47.615287799999997,-122.325126999999995,"6","18","55","20"
"49189143","100447","49","11100",E Pine St & Bellevue Ave,47.615299200000003,-122.327270999999996,"6","19","28","21"
"49189143","100447","49","1085",Pine St & 9th Ave,47.613376600000002,-122.332603000000006,"6","21","0","22"
"49189143","100447","49","1110",Pine St & 5th Ave,47.611766799999998,-122.336455999999998,"6","23","8","23"
"49189143","100447","49","1120",Pine St & 4th Ave,47.611103100000001,-122.338027999999994,"6","24","0","24"
"40802486","100340",South Lake Union Streetcar,"26680",Westlake Ave & Olive Way,47.613292700000002,-122.337340999999995,"6","0","0","1"
"40802486","100340",South Lake Union Streetcar,"26689",Westlake Ave & 7th Ave,47.615623499999998,-122.337806999999998,"6","1","17","2"
"40802486","100340",South Lake Union Streetcar,"26690",Westlake Ave & 9th Ave,47.618267099999997,-122.338341000000000,"6","2","44","3"
"40802486","100340",South Lake Union Streetcar,"26693",Terry Ave N & Thomas St,47.621501899999998,-122.337051000000002,"6","5","0","4"
"40802486","100340",South Lake Union Streetcar,"26698",Terry Ave N & Republican St,47.623416900000002,-122.337044000000006,"6","6","22","5"
"40802574","100340",South Lake Union Streetcar,"26641",Westlake Ave N & Mercer St,47.624153100000001,-122.338547000000005,"5","48","32","3"
"40802574","100340",South Lake Union Streetcar,"26645",Westlake Ave N & Harrison St,47.621379900000001,-122.338570000000004,"5","50","0","4"
"40802574","100340",South Lake Union Streetcar,"26665",Westlake Ave & 9th Ave,47.617794000000004,-122.338463000000004,"5","52","12","5"
"40802574","100340",South Lake Union Streetcar,"1619",Westlake Ave & Virginia St,47.614864300000001,-122.337860000000006,"5","54","1","6"
"40802574","100340",South Lake Union Streetcar,"1630",Westlake Ave & Olive Way,47.613281200000003,-122.337547000000001,"5","55","0","7"
"47298668","100337","975","1889",Vashon Island Water Taxi & Colman Dock,47.601222999999997,-122.338927999999996,"6","32","0","2"
"47298883","100336","973","1907",West Seattle Water Taxi & Colman Dock,47.601146700000001,-122.338736999999995,"7","0","0","2"
"47378405","100275","8","2672",Queen Anne Ave N & W Mercer St,47.624061599999997,-122.356812000000005,"5","30","0","1"
"47378405","100275","8","2180",Queen Anne Ave N & W Harrison St,47.621833799999997,-122.356819000000002,"5","30","44","2"
"47378405","100275","8","2200",Queen Anne Ave N & W John St,47.619213100000003,-122.356849999999994,"5","31","36","3"
"47378405","100275","8","2244",Denny Way & 2nd Ave N,47.618515000000002,-122.351699999999994,"5","32","57","4"
"47378405","100275","8","2245",Denny Way & 5th Ave N,47.618503599999997,-122.347877999999994,"5","33","48","5"
"47378405","100275","8","2247",Denny Way & 6th Ave,47.618495899999999,-122.345130999999995,"5","34","25","6"
"47378405","100275","8","2250",Denny Way & Dexter Ave,47.618480699999999,-122.342545000000001,"5","35","0","7"
"47378405","100275","8","2255",Denny Way & Westlake Ave,47.618469200000000,-122.338218999999995,"5","36","8","8"
"47378405","100275","8","2260",Denny Way & Fairview Ave,47.618461600000003,-122.334571999999994,"5","37","5","9"
"47378405","100275","8","2262",Denny Way & Stewart St,47.618427300000000,-122.330924999999993,"5","38","3","10"
"47378405","100275","8","29268",E Olive Way & Summit Ave E,47.619129200000003,-122.324883000000000,"5","39","45","11"
"47378405","100275","8","29270",E John St & Broadway  E,47.619846299999999,-122.320473000000007,"5","41","0","12"
"47378407","100275","8","29301",E John St & 12th Ave E,47.620002700000001,-122.317535000000007,"5","54","15","23"
"47378407","100275","8","29262",E John St & 10th Ave E,47.619979899999997,-122.319991999999999,"5","55","0","24"
"47378407","100275","8","29266",E Olive Way & Summit Ave E,47.619152100000001,-122.325119000000001,"5","56","53","25"
"47378407","100275","8","2275",E Denny Way & Bellevue Ave E,47.618564599999999,-122.326553000000004,"5","57","34","26"
"47378407","100275","8","2285",Denny Way & Fairview Ave N,47.618602799999998,-122.334213000000005,"6","0","14","27"
"47378407","100275","8","2291",Denny Way & Westlake Ave,47.618606600000000,-122.339020000000005,"6","1","55","28"
"47378407","100275","8","2295",Denny Way & Dexter Ave N,47.618614200000003,-122.342162999999999,"6","3","0","29"
"47378407","100275","8","2297",Denny Way & 6th Ave N,47.618629499999997,-122.345291000000003,"6","4","5","30"
"47378407","100275","8","2300",Denny Way & 5th Ave N,47.618640900000003,-122.347847000000002,"6","4","57","31"
"47378407","100275","8","20830",Denny Way & Broad St,47.618656199999997,-122.350730999999996,"6","5","57","32"
"47378407","100275","8","2330",1st Ave N & Denny Way,47.618904100000002,-122.355362000000000,"6","7","43","33"
"47378407","100275","8","2360",1st Ave N & Republican St,47.623187999999999,-122.355309000000005,"6","9","54","34"
"47582315","100268","74","1209",Convention Pl & Union St,47.611125899999998,-122.331778999999997,"8","26","24","27"
"47582315","100268","74","1215",Union St & 5th Ave,47.609828899999997,-122.334511000000006,"8","27","0","28"
"47582315","100268","74","1230",Union St & 4th Ave,47.609081300000000,-122.336287999999996,"8","28","10","29"
"47582315","100268","74","340",2nd Ave & Marion St,47.604465500000003,-122.334625000000003,"8","33","0","30"
"47582315","100268","74","361",2nd Ave & James St,47.602477999999998,-122.332808999999997,"8","34","55","31"
"47582315","100268","74","390",2nd Ave Ext S & S Jackson St,47.599266100000001,-122.329857000000004,"8","38","0","32"
"47582328","100268","74","840",5th Ave S & S Jackson St,47.599880200000001,-122.327560000000005,"16","42","0","1"
"47582328","100268","74","860",5th Ave & James St,47.603591899999998,-122.328971999999993,"16","44","19","2"
"47582328","100268","74","996",5th Ave & Marion St,47.605750999999998,-122.330948000000006,"16","45","48","3"
"47582328","100268","74","997",6th Ave & Union St,47.610092199999997,-122.333382000000000,"16","49","0","4"
"47582328","100268","74","1195",Pike St & 7th Ave,47.611808799999999,-122.332687000000007,"16","49","56","5"
"49189550","100264","70","1610",Prefontaine Pl S & Yesler Way,47.601657899999999,-122.329941000000005,"11","15","0","1"
"49189550","100264","70","538",3rd Ave & Columbia St,47.604190799999998,-122.332588000000001,"11","16","39","2"
"49189550","100264","70","558",3rd Ave & Seneca St,47.607051800000001,-122.335212999999996,"11","18","24","3"
"49189550","100264","70","575",3rd Ave & Pike St,47.609642000000001,-122.337585000000004,"11","20","0","4"
"49189550","100264","70","880",Virginia St & 6th Ave,47.614314999999998,-122.338286999999994,"11","23","0","5"
"49189550","100264","70","900",Virginia St & 9th Ave,47.616546600000000,-122.335387999999995,"11","25","20","6"
"49189550","100264","70","10280",Fairview Ave & Denny Way,47.618419600000003,-122.334198000000001,"11","27","0","7"
"49189550","100264","70","10305",Fairview Ave N & Harrison St,47.622276300000003,-122.334228999999993,"11","28","16","8"
"49189551","100264","70","10210",Fairview Ave N & Mercer St,47.623786899999999,-122.334457000000000,"7","47","59","17"
"49189551","100264","70","10225",Fairview Ave N & Thomas St,47.620586400000001,-122.334434999999999,"7","49","0","18"
"49189551","100264","70","10240",Boren Ave & Virginia St,47.617500300000003,-122.333816999999996,"7","50","4","19"
"49189551","100264","70","940",Stewart St & 9th Ave,47.615703600000003,-122.334457000000000,"7","50","56","20"
"49189551","100264","70","950",Stewart St & 7th Ave,47.614460000000001,-122.336074999999994,"7","51","28","21"
"49189551","100264","70","430",3rd Ave & Pine St,47.610790299999998,-122.338875000000002,"7","53","1","22"
"49189551","100264","70","450",3rd Ave & Union St,47.608253499999996,-122.336547999999993,"7","54","0","23"
"49189551","100264","70","480",3rd Ave & Marion St,47.604995700000003,-122.333572000000004,"7","56","4","24"
"49189551","100264","70","500",3rd Ave & James St,47.602817500000000,-122.331581000000000,"7","57","27","25"
"49189551","100264","70","515",3rd Ave S & S Main St,47.600238800000000,-122.330376000000001,"7","59","0","26"
"49188897","100263","7","3600",S Jackson St & 12th Ave S,47.599269900000003,-122.317757000000000,"7","54","0","35"
"49188897","100263","7","1500",S Jackson St & 8th Ave S,47.599266100000001,-122.322327000000001,"7","55","17","36"
"49188897","100263","7","1510",S Jackson St & Maynard Ave S,47.599262199999998,-122.325469999999996,"7","56","11","37"
"49188897","100263","7","1530",S Jackson St & 5th Ave S,47.599266100000001,-122.328384000000000,"7","57","0","38"
"49188897","100263","7","1610",Prefontaine Pl S & Yesler Way,47.601657899999999,-122.329941000000005,"7","58","43","39"
"49188897","100263","7","538",3rd Ave & Columbia St,47.604190799999998,-122.332588000000001,"8","0","27","40"
"49188897","100263","7","558",3rd Ave & Seneca St,47.607051800000001,-122.335212999999996,"8","2","19","41"
"49188897","100263","7","575",3rd Ave & Pike St,47.609642000000001,-122.337585000000004,"8","4","0","42"
"49188897","100263","7","98105",Virginia St & 4th Ave,47.612972300000003,-122.340003999999993,"8","8","0","43"
"49188971","100263","7","880",Virginia St & 6th Ave,47.614314999999998,-122.338286999999994,"6","25","0","1"
"49188971","100263","7","430",3rd Ave & Pine St,47.610790299999998,-122.338875000000002,"6","28","0","2"
"49188971","100263","7","450",3rd Ave & Union St,47.608253499999996,-122.336547999999993,"6","30","0","3"
"49188971","100263","7","480",3rd Ave & Marion St,47.604995700000003,-122.333572000000004,"6","32","39","4"
"49188971","100263","7","500",3rd Ave & James St,47.602817500000000,-122.331581000000000,"6","34","26","5"
"49188971","100263","7","515",3rd Ave S & S Main St,47.600238800000000,-122.330376000000001,"6","36","26","6"
"49188971","100263","7","1471",S Jackson St & 5th Ave S,47.599128700000001,-122.328040999999999,"6","38","0","7"
"49188971","100263","7","1480",S Jackson St & Maynard Ave S,47.599117300000003,-122.324569999999994,"6","38","55","8"
"49188971","100263","7","1490",S Jackson St & 8th Ave S,47.599117300000003,-122.322044000000005,"6","39","36","9"
"47377302","100253","64","10210",Fairview Ave N & Mercer St,47.623786899999999,-122.334457000000000,"6","14","0","39"
"47377302","100253","64","10225",Fairview Ave N & Thomas St,47.620586400000001,-122.334434999999999,"6","15","19","40"
"47377302","100253","64","10240",Boren Ave & Virginia St,47.617500300000003,-122.333816999999996,"6","16","39","41"
"47377302","100253","64","11065",Boren Ave & Pike St,47.613540600000000,-122.329102000000006,"6","18","46","42"
"47377302","100253","64","11075",Boren Ave & Seneca St,47.610374499999999,-122.326210000000003,"6","20","19","43"
"47377302","100253","64","11085",Boren Ave & Madison St,47.608955399999999,-122.324912999999995,"6","21","0","44"
"47377302","100253","64","11087",Boren Ave & Columbia St,47.607593500000000,-122.323668999999995,"6","21","56","45"
"47377302","100253","64","11095",Boren Ave & James St,47.606216400000001,-122.322395000000000,"6","22","53","46"
"47377302","100253","64","12930",E Jefferson St & Broadway,47.606144000000000,-122.320228999999998,"6","23","56","47"
"47377306","100253","64","12840",E Jefferson St & 12th Ave,47.606265999999998,-122.317108000000005,"16","18","8","2"
"47377306","100253","64","12860",Jefferson St & Broadway,47.606155399999999,-122.321167000000003,"16","19","50","3"
"47377306","100253","64","11025",Boren Ave & Jefferson St,47.606067699999997,-122.322029000000001,"16","20","24","4"
"47377306","100253","64","11033",Boren Ave & Marion St,47.608429000000001,-122.324188000000007,"16","22","7","5"
"47377306","100253","64","11035",Boren Ave & Madison St,47.609634399999997,-122.325294000000000,"16","23","0","6"
"47377306","100253","64","3036",Seneca St & Terry Ave,47.610225700000001,-122.327904000000004,"16","24","34","7"
"47377306","100253","64","875",8th Ave & Pine St,47.613613100000002,-122.333541999999994,"16","28","39","8"
"47377306","100253","64","900",Virginia St & 9th Ave,47.616546600000000,-122.335387999999995,"16","31","15","9"
"47377306","100253","64","10280",Fairview Ave & Denny Way,47.618419600000003,-122.334198000000001,"16","32","35","10"
"47377306","100253","64","10305",Fairview Ave N & Harrison St,47.622276300000003,-122.334228999999993,"16","35","0","11"
"47377317","100252","62","18390",Dexter Ave N & Harrison St,47.621864299999999,-122.342476000000005,"19","13","0","51"
"47377317","100252","62","18402",Dexter Ave & Denny Way,47.618301400000000,-122.342506000000000,"19","14","53","52"
"47377317","100252","62","6190",7th Ave & Blanchard St,47.616363499999999,-122.339813000000007,"19","16","19","53"
"47377317","100252","62","420",3rd Ave & Virginia St,47.612438200000000,-122.341110000000000,"19","19","12","54"
"47377317","100252","62","430",3rd Ave & Pine St,47.610790299999998,-122.338875000000002,"19","20","25","55"
"47377317","100252","62","450",3rd Ave & Union St,47.608253499999996,-122.336547999999993,"19","22","0","56"
"47377317","100252","62","480",3rd Ave & Marion St,47.604995700000003,-122.333572000000004,"19","25","14","57"
"47377317","100252","62","500",3rd Ave & James St,47.602817500000000,-122.331581000000000,"19","27","24","58"
"47377317","100252","62","625",S Washington St & 4th Ave S,47.600803399999997,-122.329048000000000,"19","30","0","59"
"47377336","100252","62","1530",S Jackson St & 5th Ave S,47.599266100000001,-122.328384000000000,"17","18","0","1"
"47377336","100252","62","531",3rd Ave & James St,47.602642099999997,-122.331183999999993,"17","21","51","2"
"47377336","100252","62","548",3rd Ave & Madison St,47.605541199999998,-122.333832000000001,"17","24","48","3"
"47377336","100252","62","570",3rd Ave & Union St,47.608688399999998,-122.336699999999993,"17","28","0","4"
"47377336","100252","62","590",3rd Ave & Pine St,47.611137399999997,-122.338950999999994,"17","29","53","5"
"47377336","100252","62","600",3rd Ave & Virginia St,47.612995099999999,-122.341742999999994,"17","31","36","6"
"47377336","100252","62","6220",7th Ave & Blanchard St,47.616878499999999,-122.340384999999998,"17","35","6","7"
"47377336","100252","62","6240",Dexter Ave N & Denny Way,47.618942300000001,-122.342299999999994,"17","36","51","8"
"47377336","100252","62","18455",Dexter Ave N & Harrison St,47.622402200000003,-122.342269999999999,"17","39","6","9"
"47418462","100249","60","11191",10th Ave E & E Mercer St,47.623950999999998,-122.319991999999999,"24","7","0","1"
"47418462","100249","60","11040",Broadway  E & E Republican St,47.622894299999999,-122.321014000000005,"24","7","37","2"
"47418462","100249","60","11050",Broadway  E & E Thomas St,47.620815299999997,-122.320992000000004,"24","8","22","3"
"47418462","100249","60","11060",Broadway & E Denny Way,47.618537900000000,-122.320946000000006,"24","9","10","4"
"47418462","100249","60","11070",Broadway & E Pine St,47.616191899999997,-122.320922999999993,"24","10","0","5"
"47418462","100249","60","41980",Broadway & E Pike St,47.614139600000001,-122.320885000000004,"24","11","0","6"
"47418462","100249","60","41982",Broadway & E Union St,47.612712899999998,-122.320885000000004,"24","11","42","7"
"47418462","100249","60","13283",Madison St & Summit Ave,47.610424000000002,-122.322722999999996,"24","13","11","8"
"47418462","100249","60","13284",Madison St & Boren Ave,47.609211000000002,-122.325637999999998,"24","14","19","9"
"47418462","100249","60","41990",9th Ave & Marion St,47.607437099999999,-122.326590999999993,"24","15","32","10"
"47418462","100249","60","42000",9th Ave & Cherry St,47.606090500000001,-122.325362999999996,"24","16","18","11"
"47418462","100249","60","12910",9th Ave & Jefferson St,47.604873699999999,-122.324241999999998,"24","17","0","12"
"47418462","100249","60","42010",9th Ave & Alder St,47.603473700000002,-122.322968000000003,"24","17","40","13"
"47418462","100249","60","27500",E Yesler Way & Broadway,47.601623500000002,-122.319832000000005,"24","19","12","14"
"47418462","100249","60","3700",12th Ave S & S Jackson St,47.598781600000002,-122.317313999999996,"24","21","0","15"
"47418462","100249","60","3710",12th Ave S & S Weller St,47.597305300000002,-122.317329000000001,"24","21","23","16"
"47418465","100249","60","3550",12th Ave S & S Atlantic St,47.590248099999997,-122.317177000000001,"23","23","14","41"
"47418465","100249","60","3570",12th Ave S & S Judkins St,47.592716199999998,-122.317177000000001,"23","23","57","42"
"47418465","100249","60","3589",12th Ave S & S Weller St,47.597377799999997,-122.317122999999995,"23","25","24","44"
"47418465","100249","60","41900",12th Ave S & S Jackson St,47.599437700000003,-122.317108000000005,"23","26","0","45"
"47418465","100249","60","27420",E Yesler Way & Broadway,47.601756999999999,-122.320296999999997,"23","28","36","46"
"47418465","100249","60","41930",9th Ave & Alder St,47.604038199999998,-122.323241999999993,"23","31","0","47"
"47418465","100249","60","41940",9th Ave & James St,47.606021900000002,-122.325057999999999,"23","31","58","48"
"47418465","100249","60","41950",9th Ave & Columbia St,47.607208300000003,-122.326141000000007,"23","32","33","49"
"47418465","100249","60","13291",Madison St & Boren Ave,47.609424599999997,-122.324744999999993,"23","34","0","50"
"47418465","100249","60","13292",Madison St & Summit Ave,47.610347699999998,-122.322533000000007,"23","34","44","51"
"47418465","100249","60","41965",Broadway & E Union St,47.612895999999999,-122.320678999999998,"23","36","3","52"
"47418465","100249","60","41970",Broadway & E Pine St,47.615165699999999,-122.320701999999997,"23","37","0","53"
"47418465","100249","60","11180",Broadway  E & E John St,47.620155300000000,-122.320785999999998,"23","40","33","54"
"47418465","100249","60","11190",Broadway  E & E Harrison St,47.622196199999998,-122.320815999999994,"23","42","0","55"
"47580184","100246","57","1565",Columbia St & Western Ave,47.602745100000000,-122.336074999999994,"6","55","34","27"
"47580184","100246","57","548",3rd Ave & Madison St,47.605541199999998,-122.333832000000001,"6","57","0","28"
"47580184","100246","57","570",3rd Ave & Union St,47.608688399999998,-122.336699999999993,"6","59","15","29"
"47580184","100246","57","590",3rd Ave & Pine St,47.611137399999997,-122.338950999999994,"7","1","0","30"
"47580202","100246","57","400",3rd Ave & Bell St,47.614444700000000,-122.344513000000006,"16","6","0","1"
"47580202","100246","57","420",3rd Ave & Virginia St,47.612438200000000,-122.341110000000000,"16","7","53","2"
"47580202","100246","57","431",3rd Ave & Pike St,47.609790799999999,-122.337958999999998,"16","10","0","3"
"47580202","100246","57","468",3rd Ave & Seneca St,47.606502499999998,-122.334937999999994,"16","11","22","4"
"47580202","100246","57","481",3rd Ave & Columbia St,47.604263300000000,-122.332901000000007,"16","12","17","5"
"47580202","100246","57","1558",Columbia St & Alaskan Way,47.602470400000001,-122.337119999999999,"16","13","32","6"
"47580164","100242","56","1565",Columbia St & Western Ave,47.602745100000000,-122.336074999999994,"8","13","24","18"
"47580164","100242","56","548",3rd Ave & Madison St,47.605541199999998,-122.333832000000001,"8","15","0","19"
"47580164","100242","56","570",3rd Ave & Union St,47.608688399999998,-122.336699999999993,"8","17","15","20"
"47580164","100242","56","590",3rd Ave & Pine St,47.611137399999997,-122.338950999999994,"8","19","0","21"
"47580168","100242","56","400",3rd Ave & Bell St,47.614444700000000,-122.344513000000006,"17","26","0","1"
"47580168","100242","56","420",3rd Ave & Virginia St,47.612438200000000,-122.341110000000000,"17","27","53","2"
"47580168","100242","56","431",3rd Ave & Pike St,47.609790799999999,-122.337958999999998,"17","30","0","3"
"47580168","100242","56","468",3rd Ave & Seneca St,47.606502499999998,-122.334937999999994,"17","31","10","4"
"47580168","100242","56","481",3rd Ave & Columbia St,47.604263300000000,-122.332901000000007,"17","31","58","5"
"47580168","100242","56","1558",Columbia St & Alaskan Way,47.602470400000001,-122.337119999999999,"17","33","2","6"
"34761886","100240","554","620",4th Ave S & S Jackson St,47.598812100000004,-122.328902999999997,"13","41","0","8"
"34761886","100240","554","628",4th Ave S & S Washington St,47.601219200000003,-122.328902999999997,"13","42","14","9"
"34761886","100240","554","648",4th Ave & Cherry St,47.604320500000000,-122.331169000000003,"13","44","1","10"
"34761886","100240","554","670",4th Ave & Seneca St,47.607498200000002,-122.334075999999996,"13","45","55","11"
"34761886","100240","554","700",4th Ave & Pike St,47.610950500000001,-122.337249999999997,"13","48","0","12"
"34761886","100240","554","720",4th Ave & Stewart St,47.612621300000001,-122.339134000000001,"13","48","55","13"
"34761886","100240","554","730",4th Ave & Lenora St,47.614151000000000,-122.341728000000003,"13","49","55","14"
"34761886","100240","554","18440",Blanchard St & 6th Ave,47.615856200000003,-122.340880999999996,"13","51","0","15"
"34761887","100240","554","1920",Lenora St & 4th Ave,47.613971700000000,-122.341292999999993,"9","8","0","1"
"34761887","100240","554","280",2nd Ave & Stewart St,47.610614800000000,-122.340248000000003,"9","9","25","2"
"34761887","100240","554","320",2nd Ave & Seneca St,47.606212599999999,-122.336205000000007,"9","11","0","3"
"34761887","100240","554","360",2nd Ave & Cherry St,47.603019699999997,-122.333281999999997,"9","14","13","4"
"34761887","100240","554","375",2nd Ave Ext S & Yesler Way,47.601253499999999,-122.331688000000000,"9","16","0","5"
"34761887","100240","554","1480",S Jackson St & Maynard Ave S,47.599117300000003,-122.324569999999994,"9","18","47","6"
"37514998","100239","550","1215",Union St & 5th Ave,47.609828899999997,-122.334511000000006,"7","26","0","1"
"37514998","100239","550","1230",Union St & 4th Ave,47.609081300000000,-122.336287999999996,"7","26","49","2"
"37514998","100239","550","320",2nd Ave & Seneca St,47.606212599999999,-122.336205000000007,"7","29","0","3"
"37514998","100239","550","360",2nd Ave & Cherry St,47.603019699999997,-122.333281999999997,"7","32","13","4"
"37514998","100239","550","375",2nd Ave Ext S & Yesler Way,47.601253499999999,-122.331688000000000,"7","34","0","5"
"37515000","100239","550","620",4th Ave S & S Jackson St,47.598812100000004,-122.328902999999997,"7","17","0","12"
"37515000","100239","550","628",4th Ave S & S Washington St,47.601219200000003,-122.328902999999997,"7","18","8","13"
"37515000","100239","550","648",4th Ave & Cherry St,47.604320500000000,-122.331169000000003,"7","19","46","14"
"37515000","100239","550","670",4th Ave & Seneca St,47.607498200000002,-122.334075999999996,"7","21","31","15"
"37515000","100239","550","690",4th Ave & Union St,47.609836600000001,-122.336219999999997,"7","22","49","16"
"37515000","100239","550","1190",Pike St & 6th Ave,47.611034400000001,-122.334525999999997,"7","23","49","17"
"37515000","100239","550","11130",Pike St & Convention Pl,47.612369500000000,-122.331360000000004,"7","25","0","18"
"47580417","100238","55","7430",Wall St & 5th Ave,47.617431600000003,-122.345344999999995,"18","5","0","1"
"47580417","100238","55","400",3rd Ave & Bell St,47.614444700000000,-122.344513000000006,"18","7","20","2"
"47580417","100238","55","420",3rd Ave & Virginia St,47.612438200000000,-122.341110000000000,"18","9","3","3"
"47580417","100238","55","431",3rd Ave & Pike St,47.609790799999999,-122.337958999999998,"18","11","0","4"
"47580417","100238","55","468",3rd Ave & Seneca St,47.606502499999998,-122.334937999999994,"18","13","59","5"
"47580417","100238","55","481",3rd Ave & Columbia St,47.604263300000000,-122.332901000000007,"18","16","0","6"
"47580417","100238","55","1558",Columbia St & Alaskan Way,47.602470400000001,-122.337119999999999,"18","16","58","7"
"47580526","100238","55","1565",Columbia St & Western Ave,47.602745100000000,-122.336074999999994,"7","32","15","24"
"47580526","100238","55","548",3rd Ave & Madison St,47.605541199999998,-122.333832000000001,"7","34","0","25"
"47580526","100238","55","570",3rd Ave & Union St,47.608688399999998,-122.336699999999993,"7","36","15","26"
"47580526","100238","55","590",3rd Ave & Pine St,47.611137399999997,-122.338950999999994,"7","38","0","27"
"34763049","100236","545","21765",6th Ave S & S Atlantic St,47.590885200000002,-122.325867000000002,"6","19","0","1"
"34763049","100236","545","620",4th Ave S & S Jackson St,47.598812100000004,-122.328902999999997,"6","22","0","2"
"34763049","100236","545","640",4th Ave & James St,47.603012100000001,-122.329978999999994,"6","23","16","3"
"34763049","100236","545","660",4th Ave & Madison St,47.606006600000001,-122.332710000000006,"6","24","18","4"
"34763049","100236","545","700",4th Ave & Pike St,47.610950500000001,-122.337249999999997,"6","26","0","5"
"34763049","100236","545","1050",Olive Way & 8th Ave,47.613937399999998,-122.334159999999997,"6","26","38","6"
"34763049","100236","545","1051",Olive Way & Boren Ave,47.615673100000002,-122.330032000000003,"6","27","4","7"
"34763050","100236","545","905",Stewart St & Yale Ave N,47.619018599999997,-122.330169999999995,"6","57","47","12"
"34763050","100236","545","940",Stewart St & 9th Ave,47.615703600000003,-122.334457000000000,"6","58","21","13"
"34763050","100236","545","950",Stewart St & 7th Ave,47.614460000000001,-122.336074999999994,"6","58","34","14"
"34763050","100236","545","760",5th Ave & Pine St,47.611724899999999,-122.336662000000004,"6","59","0","15"
"34763050","100236","545","790",5th Ave & Seneca St,47.608177200000000,-122.333404999999999,"7","0","3","16"
"34763050","100236","545","810",5th Ave & Marion St,47.605831100000003,-122.331260999999998,"7","0","45","17"
"34763050","100236","545","820",5th Ave & Jefferson St,47.603092199999999,-122.328766000000002,"7","1","34","18"
"34763050","100236","545","844",5th Ave S & S Weller St,47.597614299999996,-122.327781999999999,"7","3","0","19"
"34763050","100236","545","21850",Airport Way S & S Royal Brougham Way,47.592117299999998,-122.323791999999997,"7","5","0","20"
"34761785","100232","522","1215",Union St & 5th Ave,47.609828899999997,-122.334511000000006,"6","28","0","29"
"34761785","100232","522","1230",Union St & 4th Ave,47.609081300000000,-122.336287999999996,"6","28","47","30"
"34761785","100232","522","340",2nd Ave & Marion St,47.604465500000003,-122.334625000000003,"6","32","0","31"
"34761785","100232","522","361",2nd Ave & James St,47.602477999999998,-122.332808999999997,"6","33","9","32"
"34761785","100232","522","390",2nd Ave Ext S & S Jackson St,47.599266100000001,-122.329857000000004,"6","35","0","33"
"34761785","100232","522","21850",Airport Way S & S Royal Brougham Way,47.592117299999998,-122.323791999999997,"6","38","0","34"
"34761787","100232","522","21765",6th Ave S & S Atlantic St,47.590885200000002,-122.325867000000002,"6","30","0","1"
"34761787","100232","522","620",4th Ave S & S Jackson St,47.598812100000004,-122.328902999999997,"6","33","0","2"
"34761787","100232","522","640",4th Ave & James St,47.603012100000001,-122.329978999999994,"6","34","24","3"
"34761787","100232","522","660",4th Ave & Madison St,47.606006600000001,-122.332710000000006,"6","35","33","4"
"34761787","100232","522","690",4th Ave & Union St,47.609836600000001,-122.336219999999997,"6","37","0","5"
"34761787","100232","522","1190",Pike St & 6th Ave,47.611034400000001,-122.334525999999997,"6","40","0","6"
"47418192","100229","5","6176",7th Ave N & Thomas St,47.621055599999998,-122.343841999999995,"5","54","0","47"
"47418192","100229","5","7430",Wall St & 5th Ave,47.617431600000003,-122.345344999999995,"5","55","0","48"
"47418196","100229","5","30635",4th Ave S & S Royal Brougham Way,47.593341799999997,-122.328957000000003,"6","4","0","1"
"47418196","100229","5","619",4th Ave S & S Jackson St,47.599826800000002,-122.328971999999993,"6","8","0","2"
"47418196","100229","5","531",3rd Ave & James St,47.602642099999997,-122.331183999999993,"6","9","47","3"
"47418196","100229","5","548",3rd Ave & Madison St,47.605541199999998,-122.333832000000001,"6","11","34","4"
"47418196","100229","5","570",3rd Ave & Union St,47.608688399999998,-122.336699999999993,"6","13","30","5"
"47418196","100229","5","590",3rd Ave & Pine St,47.611137399999997,-122.338950999999994,"6","15","0","6"
"47418196","100229","5","600",3rd Ave & Virginia St,47.612995099999999,-122.341742999999994,"6","15","58","7"
"47418196","100229","5","605",3rd Ave & Bell St,47.615119900000003,-122.345337000000001,"6","17","10","8"
"47418196","100229","5","6236",7th Ave N & Denny Way,47.619098700000002,-122.343575000000001,"6","18","58","9"
"47418196","100229","5","6237",7th Ave N & Harrison St,47.621894800000000,-122.343506000000005,"6","20","0","10"
"49193070","100223","43","41902",Boren Ave & E Yesler Way,47.601959200000003,-122.317970000000003,"6","36","0","1"
"49193070","100223","43","41904",Broadway & E Terrace St,47.605449700000001,-122.320648000000006,"6","38","11","2"
"49193070","100223","43","41908",Broadway & E Marion St,47.610157000000001,-122.320662999999996,"6","40","41","3"
"49193070","100223","43","41965",Broadway & E Union St,47.612895999999999,-122.320678999999998,"6","42","8","4"
"49193070","100223","43","41970",Broadway & E Pine St,47.615165699999999,-122.320701999999997,"6","43","20","5"
"49193070","100223","43","29270",E John St & Broadway  E,47.619846299999999,-122.320473000000007,"6","46","0","6"
"49193125","100223","43","29301",E John St & 12th Ave E,47.620002700000001,-122.317535000000007,"19","12","21","22"
"49193125","100223","43","11060",Broadway & E Denny Way,47.618537900000000,-122.320946000000006,"19","14","0","23"
"49193125","100223","43","11070",Broadway & E Pine St,47.616191899999997,-122.320922999999993,"19","14","57","24"
"49193125","100223","43","41980",Broadway & E Pike St,47.614139600000001,-122.320885000000004,"19","15","47","25"
"49193125","100223","43","41982",Broadway & E Union St,47.612712899999998,-122.320885000000004,"19","16","22","26"
"49193125","100223","43","41986",Broadway & Marion St,47.609909100000003,-122.320869000000002,"19","17","31","27"
"49193125","100223","43","41987",Broadway & Terrace St,47.605384800000003,-122.320853999999997,"19","19","21","28"
"49193125","100223","43","41989",Boren Ave & E Yesler Way,47.601863899999998,-122.318123000000000,"19","21","0","29"
"43332783","100221","41","619",4th Ave S & S Jackson St,47.599826800000002,-122.328971999999993,"7","50","0","1"
"43332783","100221","41","531",3rd Ave & James St,47.602642099999997,-122.331183999999993,"7","51","31","2"
"43332783","100221","41","548",3rd Ave & Madison St,47.605541199999998,-122.333832000000001,"7","53","3","3"
"43332783","100221","41","570",3rd Ave & Union St,47.608688399999998,-122.336699999999993,"7","54","43","4"
"43332783","100221","41","590",3rd Ave & Pine St,47.611137399999997,-122.338950999999994,"7","56","0","5"
"43332783","100221","41","1040",Olive Way & 6th Ave,47.613025700000001,-122.336333999999994,"7","56","34","6"
"43333325","100221","41","1215",Union St & 5th Ave,47.609828899999997,-122.334511000000006,"18","19","0","17"
"43333325","100221","41","450",3rd Ave & Union St,47.608253499999996,-122.336547999999993,"18","20","46","18"
"43333325","100221","41","480",3rd Ave & Marion St,47.604995700000003,-122.333572000000004,"18","23","31","19"
"43333325","100221","41","500",3rd Ave & James St,47.602817500000000,-122.331581000000000,"18","25","21","20"
"43333325","100221","41","1710",Terrace St & 5th Ave,47.602046999999999,-122.328254999999999,"18","27","25","21"
"43333325","100221","41","844",5th Ave S & S Weller St,47.597614299999996,-122.327781999999999,"18","31","0","22"
"49189718","100219","4","4050",5th Ave N & Republican St,47.623611500000003,-122.347672000000003,"4","45","37","18"
"49189718","100219","4","4070",5th Ave N & Broad St,47.621288300000003,-122.347710000000006,"4","46","24","19"
"49189718","100219","4","4080",5th Ave N & Denny Way,47.619213100000003,-122.347724999999997,"4","47","5","20"
"49189718","100219","4","2220",3rd Ave & Cedar St,47.616874699999997,-122.348624999999998,"4","48","0","21"
"49189718","100219","4","400",3rd Ave & Bell St,47.614444700000000,-122.344513000000006,"4","49","32","22"
"49189718","100219","4","420",3rd Ave & Virginia St,47.612438200000000,-122.341110000000000,"4","50","48","23"
"49189718","100219","4","430",3rd Ave & Pine St,47.610790299999998,-122.338875000000002,"4","51","46","24"
"49189718","100219","4","450",3rd Ave & Union St,47.608253499999996,-122.336547999999993,"4","53","0","25"
"49189718","100219","4","480",3rd Ave & Marion St,47.604995700000003,-122.333572000000004,"4","56","20","26"
"49189718","100219","4","1560",James St & 3rd Ave,47.602932000000003,-122.330826000000002,"4","59","0","27"
"49189718","100219","4","1570",James St & 5th Ave,47.603771199999997,-122.328772999999998,"5","0","9","28"
"49189718","100219","4","12900",James St & 8th Ave,47.605163599999997,-122.325500000000005,"5","2","1","29"
"49189718","100219","4","12910",9th Ave & Jefferson St,47.604873699999999,-122.324241999999998,"5","3","0","30"
"49189718","100219","4","12930",E Jefferson St & Broadway,47.606144000000000,-122.320228999999998,"5","4","1","31"
"49189774","100219","4","12840",E Jefferson St & 12th Ave,47.606265999999998,-122.317108000000005,"6","16","15","15"
"49189774","100219","4","12860",Jefferson St & Broadway,47.606155399999999,-122.321167000000003,"6","17","12","16"
"49189774","100219","4","12880",Jefferson St & 9th Ave,47.604934700000001,-122.324089000000001,"6","18","0","17"
"49189774","100219","4","12890",James St & 8th Ave,47.605186500000002,-122.325812999999997,"6","19","11","18"
"49189774","100219","4","1540",James St & 5th Ave,47.603801699999998,-122.329093999999998,"6","21","1","19"
"49189774","100219","4","1550",James St & 4th Ave,47.603080700000000,-122.330864000000005,"6","22","0","20"
"49189774","100219","4","538",3rd Ave & Columbia St,47.604190799999998,-122.332588000000001,"6","23","14","21"
"49189774","100219","4","558",3rd Ave & Seneca St,47.607051800000001,-122.335212999999996,"6","25","12","22"
"49189774","100219","4","575",3rd Ave & Pike St,47.609642000000001,-122.337585000000004,"6","27","0","23"
"49189774","100219","4","600",3rd Ave & Virginia St,47.612995099999999,-122.341742999999994,"6","29","8","24"
"49189774","100219","4","605",3rd Ave & Bell St,47.615119900000003,-122.345337000000001,"6","30","43","25"
"49189774","100219","4","1690",3rd Ave & Vine St,47.616870900000002,-122.348297000000002,"6","32","0","26"
"49189774","100219","4","4200",Cedar St & Denny Way,47.618530300000003,-122.347519000000005,"6","32","40","27"
"49189774","100219","4","4220",5th Ave N & Broad St,47.621303599999997,-122.347504000000001,"6","33","30","28"
"49189774","100219","4","4230",5th Ave N & Republican St,47.623588599999998,-122.347465999999997,"6","34","12","29"
"49188475","100210","36","3550",12th Ave S & S Atlantic St,47.590248099999997,-122.317177000000001,"6","18","45","25"
"49188475","100210","36","3570",12th Ave S & S Judkins St,47.592716199999998,-122.317177000000001,"6","19","34","26"
"49188475","100210","36","3589",12th Ave S & S Weller St,47.597377799999997,-122.317122999999995,"6","21","16","28"
"49188475","100210","36","3600",S Jackson St & 12th Ave S,47.599269900000003,-122.317757000000000,"6","22","0","29"
"49188475","100210","36","1500",S Jackson St & 8th Ave S,47.599266100000001,-122.322327000000001,"6","23","17","30"
"49188475","100210","36","1510",S Jackson St & Maynard Ave S,47.599262199999998,-122.325469999999996,"6","24","11","31"
"49188475","100210","36","1530",S Jackson St & 5th Ave S,47.599266100000001,-122.328384000000000,"6","25","0","32"
"49188475","100210","36","1610",Prefontaine Pl S & Yesler Way,47.601657899999999,-122.329941000000005,"6","26","28","33"
"49188475","100210","36","538",3rd Ave & Columbia St,47.604190799999998,-122.332588000000001,"6","27","58","34"
"49188475","100210","36","558",3rd Ave & Seneca St,47.607051800000001,-122.335212999999996,"6","29","33","35"
"49188475","100210","36","575",3rd Ave & Pike St,47.609642000000001,-122.337585000000004,"6","31","0","36"
"49188544","100210","36","430",3rd Ave & Pine St,47.610790299999998,-122.338875000000002,"6","15","0","1"
"49188544","100210","36","450",3rd Ave & Union St,47.608253499999996,-122.336547999999993,"6","16","51","2"
"49188544","100210","36","480",3rd Ave & Marion St,47.604995700000003,-122.333572000000004,"6","19","13","3"
"49188544","100210","36","500",3rd Ave & James St,47.602817500000000,-122.331581000000000,"6","20","48","4"
"49188544","100210","36","515",3rd Ave S & S Main St,47.600238800000000,-122.330376000000001,"6","22","36","5"
"49188544","100210","36","1471",S Jackson St & 5th Ave S,47.599128700000001,-122.328040999999999,"6","24","0","6"
"49188544","100210","36","1480",S Jackson St & Maynard Ave S,47.599117300000003,-122.324569999999994,"6","24","55","7"
"49188544","100210","36","1490",S Jackson St & 8th Ave S,47.599117300000003,-122.322044000000005,"6","25","34","8"
"49188544","100210","36","3700",12th Ave S & S Jackson St,47.598781600000002,-122.317313999999996,"6","27","0","9"
"49188544","100210","36","3710",12th Ave S & S Weller St,47.597305300000002,-122.317329000000001,"6","27","23","10"
"47376516","100194","33","1370",Yesler Way & 3rd Ave,47.601779899999997,-122.329802999999998,"15","39","0","1"
"47376516","100194","33","531",3rd Ave & James St,47.602642099999997,-122.331183999999993,"15","40","52","2"
"47376516","100194","33","548",3rd Ave & Madison St,47.605541199999998,-122.333832000000001,"15","45","15","3"
"47376516","100194","33","570",3rd Ave & Union St,47.608688399999998,-122.336699999999993,"15","50","0","4"
"47376516","100194","33","590",3rd Ave & Pine St,47.611137399999997,-122.338950999999994,"15","51","32","5"
"47376516","100194","33","600",3rd Ave & Virginia St,47.612995099999999,-122.341742999999994,"15","52","57","6"
"47376516","100194","33","605",3rd Ave & Bell St,47.615119900000003,-122.345337000000001,"15","54","40","7"
"47376516","100194","33","1690",3rd Ave & Vine St,47.616870900000002,-122.348297000000002,"15","56","6","8"
"47376516","100194","33","2320",1st Ave & Broad St,47.617206600000003,-122.352858999999995,"15","58","24","9"
"47376516","100194","33","19440",Denny Way & Queen Anne Ave N,47.618656199999997,-122.356605999999999,"16","0","0","10"
"47376516","100194","33","19460",Western Ave W & Elliott Ave W,47.619964600000003,-122.359511999999995,"16","0","34","11"
"47376516","100194","33","19470",Elliott Ave W & 4th Ave W,47.621440900000003,-122.361739999999998,"16","1","3","12"
"47376516","100194","33","19480",Elliott Ave W & 6th Ave W,47.623352099999998,-122.364006000000003,"16","1","36","13"
"47376521","100194","33","19390",Elliott Ave W & W Mercer St,47.624530800000002,-122.365662000000000,"5","26","43","31"
"47376521","100194","33","19410",Elliott Ave W & W Harrison St,47.622314500000002,-122.363022000000001,"5","27","21","32"
"47376521","100194","33","19420",Western Ave W & Elliott Ave W,47.619956999999999,-122.359802000000002,"5","28","4","33"
"47376521","100194","33","2244",Denny Way & 2nd Ave N,47.618515000000002,-122.351699999999994,"5","29","23","34"
"47376521","100194","33","2220",3rd Ave & Cedar St,47.616874699999997,-122.348624999999998,"5","30","0","35"
"42017801","100193","32","2361",Republican St & 1st Ave N,47.623199499999998,-122.355536999999998,"5","49","0","1"
"42599192","100193","32","13910",W Mercer St & 3rd Ave W,47.624534599999997,-122.360718000000006,"7","10","36","37"
"42599192","100193","32","2672",Queen Anne Ave N & W Mercer St,47.624061599999997,-122.356812000000005,"7","12","0","38"
"42599192","100193","32","2180",Queen Anne Ave N & W Harrison St,47.621833799999997,-122.356819000000002,"7","14","0","39"
"40421349","100186","311","905",Stewart St & Yale Ave N,47.619018599999997,-122.330169999999995,"6","18","28","11"
"40421349","100186","311","940",Stewart St & 9th Ave,47.615703600000003,-122.334457000000000,"6","19","11","12"
"40421349","100186","311","950",Stewart St & 7th Ave,47.614460000000001,-122.336074999999994,"6","19","27","13"
"40421349","100186","311","760",5th Ave & Pine St,47.611724899999999,-122.336662000000004,"6","20","0","14"
"40421349","100186","311","790",5th Ave & Seneca St,47.608177200000000,-122.333404999999999,"6","21","35","15"
"40421349","100186","311","810",5th Ave & Marion St,47.605831100000003,-122.331260999999998,"6","22","38","16"
"40421349","100186","311","820",5th Ave & Jefferson St,47.603092199999999,-122.328766000000002,"6","23","51","17"
"40421349","100186","311","844",5th Ave S & S Weller St,47.597614299999996,-122.327781999999999,"6","26","0","18"
"40421361","100186","311","840",5th Ave S & S Jackson St,47.599880200000001,-122.327560000000005,"15","14","0","1"
"40421361","100186","311","860",5th Ave & James St,47.603591899999998,-122.328971999999993,"15","16","19","2"
"40421361","100186","311","996",5th Ave & Marion St,47.605750999999998,-122.330948000000006,"15","17","48","3"
"40421361","100186","311","997",6th Ave & Union St,47.610092199999997,-122.333382000000000,"15","21","0","4"
"40421361","100186","311","1050",Olive Way & 8th Ave,47.613937399999998,-122.334159999999997,"15","22","13","5"
"40421361","100186","311","1051",Olive Way & Boren Ave,47.615673100000002,-122.330032000000003,"15","23","1","6"
"47581241","100183","309","41900",12th Ave S & S Jackson St,47.599437700000003,-122.317108000000005,"15","58","0","1"
"47581241","100183","309","41902",Boren Ave & E Yesler Way,47.601959200000003,-122.317970000000003,"15","59","37","2"
"47581241","100183","309","11025",Boren Ave & Jefferson St,47.606067699999997,-122.322029000000001,"16","2","32","3"
"47581241","100183","309","11033",Boren Ave & Marion St,47.608429000000001,-122.324188000000007,"16","4","10","4"
"47581241","100183","309","11035",Boren Ave & Madison St,47.609634399999997,-122.325294000000000,"16","5","0","5"
"47581241","100183","309","3036",Seneca St & Terry Ave,47.610225700000001,-122.327904000000004,"16","6","34","6"
"47581241","100183","309","875",8th Ave & Pine St,47.613613100000002,-122.333541999999994,"16","10","39","7"
"47581241","100183","309","900",Virginia St & 9th Ave,47.616546600000000,-122.335387999999995,"16","13","15","8"
"47581241","100183","309","10280",Fairview Ave & Denny Way,47.618419600000003,-122.334198000000001,"16","14","35","9"
"47581241","100183","309","10305",Fairview Ave N & Harrison St,47.622276300000003,-122.334228999999993,"16","17","0","10"
"47581245","100183","309","10210",Fairview Ave N & Mercer St,47.623786899999999,-122.334457000000000,"6","38","0","16"
"47581245","100183","309","10225",Fairview Ave N & Thomas St,47.620586400000001,-122.334434999999999,"6","39","31","17"
"47581245","100183","309","10240",Boren Ave & Virginia St,47.617500300000003,-122.333816999999996,"6","41","2","18"
"47581245","100183","309","11065",Boren Ave & Pike St,47.613540600000000,-122.329102000000006,"6","43","27","19"
"47581245","100183","309","11075",Boren Ave & Seneca St,47.610374499999999,-122.326210000000003,"6","45","13","20"
"47581245","100183","309","11085",Boren Ave & Madison St,47.608955399999999,-122.324912999999995,"6","46","0","21"
"47581245","100183","309","11087",Boren Ave & Columbia St,47.607593500000000,-122.323668999999995,"6","47","5","22"
"47581245","100183","309","11095",Boren Ave & James St,47.606216400000001,-122.322395000000000,"6","48","12","23"
"47581245","100183","309","41989",Boren Ave & E Yesler Way,47.601863899999998,-122.318123000000000,"6","51","45","24"
"47581245","100183","309","3600",S Jackson St & 12th Ave S,47.599269900000003,-122.317757000000000,"6","54","0","25"
"42018660","100178","304","820",5th Ave & Jefferson St,47.603092199999999,-122.328766000000002,"6","43","0","30"
"42018660","100178","304","531",3rd Ave & James St,47.602642099999997,-122.331183999999993,"6","46","13","31"
"42018660","100178","304","548",3rd Ave & Madison St,47.605541199999998,-122.333832000000001,"6","48","59","32"
"42018660","100178","304","570",3rd Ave & Union St,47.608688399999998,-122.336699999999993,"6","52","0","33"
"42018660","100178","304","590",3rd Ave & Pine St,47.611137399999997,-122.338950999999994,"6","54","22","34"
"42018660","100178","304","880",Virginia St & 6th Ave,47.614314999999998,-122.338286999999994,"6","58","0","35"
"42018672","100178","304","9300",Eastlake Ave E & Mercer St,47.624004399999997,-122.329268999999996,"15","28","56","2"
"42018672","100178","304","905",Stewart St & Yale Ave N,47.619018599999997,-122.330169999999995,"15","31","42","3"
"42018672","100178","304","940",Stewart St & 9th Ave,47.615703600000003,-122.334457000000000,"15","34","0","4"
"42018672","100178","304","950",Stewart St & 7th Ave,47.614460000000001,-122.336074999999994,"15","35","11","5"
"42018672","100178","304","433",3rd Ave & Pike St,47.609069800000000,-122.337288000000001,"15","40","0","6"
"42018672","100178","304","468",3rd Ave & Seneca St,47.606502499999998,-122.334937999999994,"15","42","15","7"
"42018672","100178","304","490",3rd Ave & Cherry St,47.603580500000000,-122.332274999999996,"15","44","48","8"
"42018672","100178","304","1710",Terrace St & 5th Ave,47.602046999999999,-122.328254999999999,"15","47","38","9"
"42018672","100178","304","860",5th Ave & James St,47.603591899999998,-122.328971999999993,"15","49","0","10"
"47377465","100177","303","12840",E Jefferson St & 12th Ave,47.606265999999998,-122.317108000000005,"16","30","59","2"
"47377465","100177","303","12860",Jefferson St & Broadway,47.606155399999999,-122.321167000000003,"16","33","10","3"
"47377465","100177","303","12880",Jefferson St & 9th Ave,47.604934700000001,-122.324089000000001,"16","35","0","4"
"47377465","100177","303","41940",9th Ave & James St,47.606021900000002,-122.325057999999999,"16","36","9","5"
"47377465","100177","303","41950",9th Ave & Columbia St,47.607208300000003,-122.326141000000007,"16","37","17","6"
"47377465","100177","303","41955",9th Ave & Spring St,47.608989700000002,-122.327781999999999,"16","39","0","7"
"47377465","100177","303","800",5th Ave & Spring St,47.606964099999999,-122.332290999999998,"16","39","51","8"
"47377471","100177","303","1570",James St & 5th Ave,47.603771199999997,-122.328772999999998,"6","3","0","10"
"47377471","100177","303","41940",9th Ave & James St,47.606021900000002,-122.325057999999999,"6","5","48","11"
"47377471","100177","303","41955",9th Ave & Spring St,47.608989700000002,-122.327781999999999,"6","8","23","12"
"47377471","100177","303","3151",Seneca St & 9th Ave,47.609890000000000,-122.328316000000001,"6","9","19","13"
"47377471","100177","303","11085",Boren Ave & Madison St,47.608955399999999,-122.324912999999995,"6","12","0","14"
"47377471","100177","303","11087",Boren Ave & Columbia St,47.607593500000000,-122.323668999999995,"6","12","40","15"
"47377471","100177","303","12930",E Jefferson St & Broadway,47.606144000000000,-122.320228999999998,"6","14","6","16"
"42018594","100175","301","840",5th Ave S & S Jackson St,47.599880200000001,-122.327560000000005,"16","59","0","1"
"42018594","100175","301","860",5th Ave & James St,47.603591899999998,-122.328971999999993,"17","1","19","2"
"42018594","100175","301","996",5th Ave & Marion St,47.605750999999998,-122.330948000000006,"17","2","48","3"
"42018594","100175","301","997",6th Ave & Union St,47.610092199999997,-122.333382000000000,"17","6","0","4"
"42018594","100175","301","1195",Pike St & 7th Ave,47.611808799999999,-122.332687000000007,"17","6","32","5"
"42018625","100175","301","1209",Convention Pl & Union St,47.611125899999998,-122.331778999999997,"6","26","46","9"
"42018625","100175","301","1215",Union St & 5th Ave,47.609828899999997,-122.334511000000006,"6","27","0","10"
"42018625","100175","301","1230",Union St & 4th Ave,47.609081300000000,-122.336287999999996,"6","27","59","11"
"42018625","100175","301","340",2nd Ave & Marion St,47.604465500000003,-122.334625000000003,"6","32","0","12"
"42018625","100175","301","361",2nd Ave & James St,47.602477999999998,-122.332808999999997,"6","33","32","13"
"42018625","100175","301","390",2nd Ave Ext S & S Jackson St,47.599266100000001,-122.329857000000004,"6","36","0","14"
"49189778","100173","3","12840",E Jefferson St & 12th Ave,47.606265999999998,-122.317108000000005,"4","55","15","12"
"49189778","100173","3","12860",Jefferson St & Broadway,47.606155399999999,-122.321167000000003,"4","56","12","13"
"49189778","100173","3","12880",Jefferson St & 9th Ave,47.604934700000001,-122.324089000000001,"4","57","0","14"
"49189778","100173","3","12890",James St & 8th Ave,47.605186500000002,-122.325812999999997,"4","58","11","15"
"49189778","100173","3","1540",James St & 5th Ave,47.603801699999998,-122.329093999999998,"5","0","1","16"
"49189778","100173","3","1550",James St & 4th Ave,47.603080700000000,-122.330864000000005,"5","1","0","17"
"49189778","100173","3","538",3rd Ave & Columbia St,47.604190799999998,-122.332588000000001,"5","2","14","18"
"49189778","100173","3","558",3rd Ave & Seneca St,47.607051800000001,-122.335212999999996,"5","4","12","19"
"49189778","100173","3","575",3rd Ave & Pike St,47.609642000000001,-122.337585000000004,"5","6","0","20"
"49189778","100173","3","600",3rd Ave & Virginia St,47.612995099999999,-122.341742999999994,"5","8","0","21"
"49189779","100173","3","4050",5th Ave N & Republican St,47.623611500000003,-122.347672000000003,"11","21","37","18"
"49189779","100173","3","4070",5th Ave N & Broad St,47.621288300000003,-122.347710000000006,"11","22","24","19"
"49189779","100173","3","4080",5th Ave N & Denny Way,47.619213100000003,-122.347724999999997,"11","23","5","20"
"49189779","100173","3","2220",3rd Ave & Cedar St,47.616874699999997,-122.348624999999998,"11","24","0","21"
"49189779","100173","3","400",3rd Ave & Bell St,47.614444700000000,-122.344513000000006,"11","25","51","22"
"49189779","100173","3","420",3rd Ave & Virginia St,47.612438200000000,-122.341110000000000,"11","27","22","23"
"49189779","100173","3","430",3rd Ave & Pine St,47.610790299999998,-122.338875000000002,"11","28","31","24"
"49189779","100173","3","450",3rd Ave & Union St,47.608253499999996,-122.336547999999993,"11","30","0","25"
"49189779","100173","3","480",3rd Ave & Marion St,47.604995700000003,-122.333572000000004,"11","33","20","26"
"49189779","100173","3","1560",James St & 3rd Ave,47.602932000000003,-122.330826000000002,"11","36","0","27"
"49189779","100173","3","1570",James St & 5th Ave,47.603771199999997,-122.328772999999998,"11","37","26","28"
"49189779","100173","3","12900",James St & 8th Ave,47.605163599999997,-122.325500000000005,"11","39","46","29"
"49189779","100173","3","12910",9th Ave & Jefferson St,47.604873699999999,-122.324241999999998,"11","41","0","30"
"49189779","100173","3","12930",E Jefferson St & Broadway,47.606144000000000,-122.320228999999998,"11","42","3","31"
"49189781","100173","3","12840",E Jefferson St & 12th Ave,47.606265999999998,-122.317108000000005,"12","33","54","12"
"49189781","100173","3","12860",Jefferson St & Broadway,47.606155399999999,-122.321167000000003,"12","35","2","13"
"49189781","100173","3","12880",Jefferson St & 9th Ave,47.604934700000001,-122.324089000000001,"12","36","0","14"
"47377144","100169","28","6176",7th Ave N & Thomas St,47.621055599999998,-122.343841999999995,"13","29","11","20"
"47377144","100169","28","7430",Wall St & 5th Ave,47.617431600000003,-122.345344999999995,"13","30","0","21"
"47377145","100169","28","30635",4th Ave S & S Royal Brougham Way,47.593341799999997,-122.328957000000003,"7","0","0","1"
"47377145","100169","28","619",4th Ave S & S Jackson St,47.599826800000002,-122.328971999999993,"7","2","0","2"
"47377145","100169","28","531",3rd Ave & James St,47.602642099999997,-122.331183999999993,"7","4","16","3"
"47377145","100169","28","548",3rd Ave & Madison St,47.605541199999998,-122.333832000000001,"7","6","32","4"
"47377145","100169","28","570",3rd Ave & Union St,47.608688399999998,-122.336699999999993,"7","9","0","5"
"47377145","100169","28","590",3rd Ave & Pine St,47.611137399999997,-122.338950999999994,"7","11","38","6"
"47377145","100169","28","600",3rd Ave & Virginia St,47.612995099999999,-122.341742999999994,"7","14","3","7"
"47377145","100169","28","605",3rd Ave & Bell St,47.615119900000003,-122.345337000000001,"7","17","0","8"
"47377145","100169","28","6236",7th Ave N & Denny Way,47.619098700000002,-122.343575000000001,"7","18","8","9"
"47377145","100169","28","6237",7th Ave N & Harrison St,47.621894800000000,-122.343506000000005,"7","18","47","10"
"47376570","100161","27","2220",3rd Ave & Cedar St,47.616874699999997,-122.348624999999998,"20","53","0","1"
"47376570","100161","27","400",3rd Ave & Bell St,47.614444700000000,-122.344513000000006,"20","54","40","2"
"47376570","100161","27","420",3rd Ave & Virginia St,47.612438200000000,-122.341110000000000,"20","56","3","3"
"47376570","100161","27","433",3rd Ave & Pike St,47.609069800000000,-122.337288000000001,"20","58","0","4"
"47376570","100161","27","468",3rd Ave & Seneca St,47.606502499999998,-122.334937999999994,"21","0","20","5"
"47376570","100161","27","490",3rd Ave & Cherry St,47.603580500000000,-122.332274999999996,"21","3","0","6"
"47376570","100161","27","1340",Yesler Way & Prefontaine Pl S,47.601646400000000,-122.329857000000004,"21","5","0","7"
"47376570","100161","27","1350",Yesler Way & 6th Ave S,47.601638800000003,-122.325050000000005,"21","6","2","8"
"47376570","100161","27","27480",Yesler Way & 8th Ave S,47.601627299999997,-122.323586000000006,"21","6","20","9"
"47376570","100161","27","27500",E Yesler Way & Broadway,47.601623500000002,-122.319832000000005,"21","7","8","10"
"47376599","100161","27","27420",E Yesler Way & Broadway,47.601756999999999,-122.320296999999997,"20","57","56","20"
"47376599","100161","27","27430",Yesler Way & 8th Ave,47.601772300000000,-122.323775999999995,"20","58","42","21"
"47376599","100161","27","1360",Yesler Way & 5th Ave,47.601787600000002,-122.327399999999997,"20","59","29","22"
"47376599","100161","27","1370",Yesler Way & 3rd Ave,47.601779899999997,-122.329802999999998,"21","0","0","23"
"47377230","100151","26","6176",7th Ave N & Thomas St,47.621055599999998,-122.343841999999995,"7","35","5","36"
"47377230","100151","26","7430",Wall St & 5th Ave,47.617431600000003,-122.345344999999995,"7","36","0","37"
"47377265","100151","26","30635",4th Ave S & S Royal Brougham Way,47.593341799999997,-122.328957000000003,"6","15","0","1"
"47377265","100151","26","619",4th Ave S & S Jackson St,47.599826800000002,-122.328971999999993,"6","17","0","2"
"47377265","100151","26","531",3rd Ave & James St,47.602642099999997,-122.331183999999993,"6","19","16","3"
"47377265","100151","26","548",3rd Ave & Madison St,47.605541199999998,-122.333832000000001,"6","21","32","4"
"47377265","100151","26","570",3rd Ave & Union St,47.608688399999998,-122.336699999999993,"6","24","0","5"
"47377265","100151","26","590",3rd Ave & Pine St,47.611137399999997,-122.338950999999994,"6","25","39","6"
"47377265","100151","26","600",3rd Ave & Virginia St,47.612995099999999,-122.341742999999994,"6","27","9","7"
"47377265","100151","26","605",3rd Ave & Bell St,47.615119900000003,-122.345337000000001,"6","29","0","8"
"47377265","100151","26","6236",7th Ave N & Denny Way,47.619098700000002,-122.343575000000001,"6","29","53","9"
"47377265","100151","26","6237",7th Ave N & Harrison St,47.621894800000000,-122.343506000000005,"6","30","23","10"
"40421082","100148","257","905",Stewart St & Yale Ave N,47.619018599999997,-122.330169999999995,"8","45","39","35"
"40421082","100148","257","940",Stewart St & 9th Ave,47.615703600000003,-122.334457000000000,"8","46","45","36"
"40421082","100148","257","950",Stewart St & 7th Ave,47.614460000000001,-122.336074999999994,"8","47","9","37"
"40421082","100148","257","760",5th Ave & Pine St,47.611724899999999,-122.336662000000004,"8","48","0","38"
"40421082","100148","257","790",5th Ave & Seneca St,47.608177200000000,-122.333404999999999,"8","50","54","39"
"40421082","100148","257","810",5th Ave & Marion St,47.605831100000003,-122.331260999999998,"8","52","49","40"
"40421082","100148","257","820",5th Ave & Jefferson St,47.603092199999999,-122.328766000000002,"8","55","3","41"
"40421082","100148","257","844",5th Ave S & S Weller St,47.597614299999996,-122.327781999999999,"8","59","0","42"
"40421093","100148","257","840",5th Ave S & S Jackson St,47.599880200000001,-122.327560000000005,"16","29","0","1"
"40421093","100148","257","860",5th Ave & James St,47.603591899999998,-122.328971999999993,"16","31","19","2"
"40421093","100148","257","996",5th Ave & Marion St,47.605750999999998,-122.330948000000006,"16","32","48","3"
"40421093","100148","257","997",6th Ave & Union St,47.610092199999997,-122.333382000000000,"16","36","0","4"
"40421093","100148","257","1050",Olive Way & 8th Ave,47.613937399999998,-122.334159999999997,"16","37","32","5"
"40421093","100148","257","1051",Olive Way & Boren Ave,47.615673100000002,-122.330032000000003,"16","38","34","6"
"47376744","100132","24","19390",Elliott Ave W & W Mercer St,47.624530800000002,-122.365662000000000,"6","55","38","47"
"47376744","100132","24","19410",Elliott Ave W & W Harrison St,47.622314500000002,-122.363022000000001,"6","56","28","48"
"47376744","100132","24","19420",Western Ave W & Elliott Ave W,47.619956999999999,-122.359802000000002,"6","57","25","49"
"47376744","100132","24","2244",Denny Way & 2nd Ave N,47.618515000000002,-122.351699999999994,"6","59","11","50"
"47376744","100132","24","2220",3rd Ave & Cedar St,47.616874699999997,-122.348624999999998,"7","0","0","51"
"47376768","100132","24","30635",4th Ave S & S Royal Brougham Way,47.593341799999997,-122.328957000000003,"15","25","0","1"
"47376768","100132","24","619",4th Ave S & S Jackson St,47.599826800000002,-122.328971999999993,"15","27","0","2"
"47376768","100132","24","531",3rd Ave & James St,47.602642099999997,-122.331183999999993,"15","29","55","3"
"47376768","100132","24","548",3rd Ave & Madison St,47.605541199999998,-122.333832000000001,"15","32","50","4"
"47376768","100132","24","570",3rd Ave & Union St,47.608688399999998,-122.336699999999993,"15","36","0","5"
"47376768","100132","24","590",3rd Ave & Pine St,47.611137399999997,-122.338950999999994,"15","37","32","6"
"47376768","100132","24","600",3rd Ave & Virginia St,47.612995099999999,-122.341742999999994,"15","38","57","7"
"47376768","100132","24","605",3rd Ave & Bell St,47.615119900000003,-122.345337000000001,"15","40","40","8"
"47376768","100132","24","1690",3rd Ave & Vine St,47.616870900000002,-122.348297000000002,"15","42","6","9"
"47376768","100132","24","2320",1st Ave & Broad St,47.617206600000003,-122.352858999999995,"15","44","24","10"
"47376768","100132","24","19440",Denny Way & Queen Anne Ave N,47.618656199999997,-122.356605999999999,"15","46","0","11"
"47376768","100132","24","19460",Western Ave W & Elliott Ave W,47.619964600000003,-122.359511999999995,"15","46","38","12"
"47376768","100132","24","19470",Elliott Ave W & 4th Ave W,47.621440900000003,-122.361739999999998,"15","47","10","13"
"47376768","100132","24","19480",Elliott Ave W & 6th Ave W,47.623352099999998,-122.364006000000003,"15","47","47","14"
"35024277","100104","212","250",2nd Ave & Bell St,47.613704700000000,-122.345253000000000,"15","21","0","1"
"35024277","100104","212","280",2nd Ave & Stewart St,47.610614800000000,-122.340248000000003,"15","23","21","2"
"35024277","100104","212","320",2nd Ave & Seneca St,47.606212599999999,-122.336205000000007,"15","26","0","3"
"35024277","100104","212","360",2nd Ave & Cherry St,47.603019699999997,-122.333281999999997,"15","29","13","4"
"35024277","100104","212","375",2nd Ave Ext S & Yesler Way,47.601253499999999,-122.331688000000000,"15","31","0","5"
"35025264","100104","212","620",4th Ave S & S Jackson St,47.598812100000004,-122.328902999999997,"6","14","0","4"
"35025264","100104","212","628",4th Ave S & S Washington St,47.601219200000003,-122.328902999999997,"6","14","53","5"
"35025264","100104","212","648",4th Ave & Cherry St,47.604320500000000,-122.331169000000003,"6","16","9","6"
"35025264","100104","212","670",4th Ave & Seneca St,47.607498200000002,-122.334075999999996,"6","17","31","7"
"35025264","100104","212","700",4th Ave & Pike St,47.610950500000001,-122.337249999999997,"6","19","0","8"
"35025264","100104","212","1040",Olive Way & 6th Ave,47.613025700000001,-122.336333999999994,"6","20","57","9"
"35025264","100104","212","1050",Olive Way & 8th Ave,47.613937399999998,-122.334159999999997,"6","22","0","10"
"47418193","100101","21","15204",Edgar Martinez Dr S & Occidental Ave S,47.590194699999998,-122.333588000000006,"6","2","29","35"
"47418193","100101","21","30635",4th Ave S & S Royal Brougham Way,47.593341799999997,-122.328957000000003,"6","4","0","36"
"47418195","100101","21","7430",Wall St & 5th Ave,47.617431600000003,-122.345344999999995,"5","55","0","1"
"47418195","100101","21","400",3rd Ave & Bell St,47.614444700000000,-122.344513000000006,"5","56","57","2"
"47418195","100101","21","420",3rd Ave & Virginia St,47.612438200000000,-122.341110000000000,"5","58","23","3"
"47418195","100101","21","431",3rd Ave & Pike St,47.609790799999999,-122.337958999999998,"6","0","0","4"
"47418195","100101","21","468",3rd Ave & Seneca St,47.606502499999998,-122.334937999999994,"6","2","6","5"
"47418195","100101","21","490",3rd Ave & Cherry St,47.603580500000000,-122.332274999999996,"6","3","57","6"
"47418195","100101","21","515",3rd Ave S & S Main St,47.600238800000000,-122.330376000000001,"6","6","0","7"
"47418195","100101","21","15201",1st Ave S & S Atlantic St,47.589900999999998,-122.334297000000007,"6","10","0","8"
"44565077","100089","2","2672",Queen Anne Ave N & W Mercer St,47.624061599999997,-122.356812000000005,"6","4","0","13"
"44565077","100089","2","2180",Queen Anne Ave N & W Harrison St,47.621833799999997,-122.356819000000002,"6","4","57","14"
"44565077","100089","2","2200",Queen Anne Ave N & W John St,47.619213100000003,-122.356849999999994,"6","6","5","15"
"44565077","100089","2","2244",Denny Way & 2nd Ave N,47.618515000000002,-122.351699999999994,"6","7","49","16"
"44565077","100089","2","2220",3rd Ave & Cedar St,47.616874699999997,-122.348624999999998,"6","9","0","17"
"44565077","100089","2","400",3rd Ave & Bell St,47.614444700000000,-122.344513000000006,"6","11","9","18"
"44565077","100089","2","420",3rd Ave & Virginia St,47.612438200000000,-122.341110000000000,"6","12","56","19"
"44565077","100089","2","430",3rd Ave & Pine St,47.610790299999998,-122.338875000000002,"6","14","16","20"
"44565077","100089","2","450",3rd Ave & Union St,47.608253499999996,-122.336547999999993,"6","16","0","21"
"44565077","100089","2","1270",Spring St & 4th Ave,47.606876399999997,-122.333206000000004,"6","18","0","22"
"44565077","100089","2","1280",Spring St & 6th Ave,47.607814800000000,-122.330948000000006,"6","18","56","23"
"44565077","100089","2","3150",Seneca St & 8th Ave,47.609252900000001,-122.329841999999999,"6","20","0","24"
"44565077","100089","2","3151",Seneca St & 9th Ave,47.609890000000000,-122.328316000000001,"6","20","38","25"
"44565077","100089","2","3152",Seneca St & Boren Ave,47.610809300000000,-122.326126000000002,"6","21","34","26"
"44565077","100089","2","3153",Seneca St & Summit Ave,47.611763000000003,-122.323882999999995,"6","22","30","27"
"44565077","100089","2","3154",Seneca St & Boylston Ave,47.612220800000003,-122.322777000000002,"6","22","58","28"
"44565077","100089","2","3155",E Union St & Broadway,47.612884500000000,-122.320389000000006,"6","24","0","29"
"44565077","100089","2","3156",E Madison St & 12th Ave,47.612480200000000,-122.317429000000004,"6","24","52","30"
"44565088","100089","2","3032",E Union St & Broadway,47.613029500000003,-122.320594999999997,"7","9","0","21"
"44565088","100089","2","3033",Seneca St & Harvard Ave,47.612602199999998,-122.322318999999993,"7","9","41","22"
"44565088","100089","2","3034",Seneca St & Summit Ave,47.611629499999999,-122.324569999999994,"7","10","40","23"
"44565088","100089","2","3035",Seneca St & Boren Ave,47.610927599999997,-122.326233000000002,"7","11","21","24"
"44565088","100089","2","3036",Seneca St & Terry Ave,47.610225700000001,-122.327904000000004,"7","12","3","25"
"44565088","100089","2","3037",Seneca St & 8th Ave,47.609279600000001,-122.330169999999995,"7","13","0","26"
"44565088","100089","2","1260",Seneca St & 6th Ave,47.608741799999997,-122.331481999999994,"7","13","35","27"
"44565088","100089","2","1250",Seneca St & 4th Ave,47.607421899999999,-122.334609999999998,"7","15","0","28"
"44565088","100089","2","575",3rd Ave & Pike St,47.609642000000001,-122.337585000000004,"7","17","0","29"
"44565088","100089","2","600",3rd Ave & Virginia St,47.612995099999999,-122.341742999999994,"7","19","3","30"
"44565088","100089","2","605",3rd Ave & Bell St,47.615119900000003,-122.345337000000001,"7","20","34","31"
"44565088","100089","2","1690",3rd Ave & Vine St,47.616870900000002,-122.348297000000002,"7","21","48","32"
"44565088","100089","2","2320",1st Ave & Broad St,47.617206600000003,-122.352858999999995,"7","23","49","33"
"44565088","100089","2","2330",1st Ave N & Denny Way,47.618904100000002,-122.355362000000000,"7","25","0","34"
"44565088","100089","2","2360",1st Ave N & Republican St,47.623187999999999,-122.355309000000005,"7","26","55","35"
"49783272","100045","150","99267",SODO Busway & S Royal Brougham Way,47.592014300000002,-122.327301000000006,"7","4","43","35"
"49783272","100045","150","30635",4th Ave S & S Royal Brougham Way,47.593341799999997,-122.328957000000003,"7","5","25","36"
"49783272","100045","150","620",4th Ave S & S Jackson St,47.598812100000004,-122.328902999999997,"7","7","0","37"
"49783272","100045","150","640",4th Ave & James St,47.603012100000001,-122.329978999999994,"7","8","46","38"
"49783272","100045","150","660",4th Ave & Madison St,47.606006600000001,-122.332710000000006,"7","10","11","39"
"49783272","100045","150","690",4th Ave & Union St,47.609836600000001,-122.336219999999997,"7","12","0","40"
"49783272","100045","150","1190",Pike St & 6th Ave,47.611034400000001,-122.334525999999997,"7","13","23","41"
"49783272","100045","150","11130",Pike St & Convention Pl,47.612369500000000,-122.331360000000004,"7","15","0","42"
"49783273","100045","150","1215",Union St & 5th Ave,47.609828899999997,-122.334511000000006,"16","22","0","1"
"49783273","100045","150","1230",Union St & 4th Ave,47.609081300000000,-122.336287999999996,"16","22","47","2"
"49783273","100045","150","340",2nd Ave & Marion St,47.604465500000003,-122.334625000000003,"16","26","0","3"
"49783273","100045","150","361",2nd Ave & James St,47.602477999999998,-122.332808999999997,"16","27","9","4"
"49783273","100045","150","390",2nd Ave Ext S & S Jackson St,47.599266100000001,-122.329857000000004,"16","29","0","5"
"49783273","100045","150","99271",SODO Busway & S Royal Brougham Way,47.591812099999999,-122.327468999999994,"16","31","26","6"
"49189390","100039","14","3600",S Jackson St & 12th Ave S,47.599269900000003,-122.317757000000000,"6","2","0","20"
"49189395","100039","14","2220",3rd Ave & Cedar St,47.616874699999997,-122.348624999999998,"6","24","0","1"
"49189395","100039","14","400",3rd Ave & Bell St,47.614444700000000,-122.344513000000006,"6","25","51","2"
"49189395","100039","14","420",3rd Ave & Virginia St,47.612438200000000,-122.341110000000000,"6","27","22","3"
"49189395","100039","14","430",3rd Ave & Pine St,47.610790299999998,-122.338875000000002,"6","28","31","4"
"49189395","100039","14","450",3rd Ave & Union St,47.608253499999996,-122.336547999999993,"6","30","0","5"
"49189395","100039","14","480",3rd Ave & Marion St,47.604995700000003,-122.333572000000004,"6","32","19","6"
"49189395","100039","14","500",3rd Ave & James St,47.602817500000000,-122.331581000000000,"6","33","52","7"
"49189395","100039","14","515",3rd Ave S & S Main St,47.600238800000000,-122.330376000000001,"6","35","38","8"
"49189395","100039","14","1471",S Jackson St & 5th Ave S,47.599128700000001,-122.328040999999999,"6","37","0","9"
"49189395","100039","14","1480",S Jackson St & Maynard Ave S,47.599117300000003,-122.324569999999994,"6","37","55","10"
"49189395","100039","14","1490",S Jackson St & 8th Ave S,47.599117300000003,-122.322044000000005,"6","38","36","11"
"47376280","100031","132","30635",4th Ave S & S Royal Brougham Way,47.593341799999997,-122.328957000000003,"14","26","0","58"
"47376344","100031","132","7430",Wall St & 5th Ave,47.617431600000003,-122.345344999999995,"20","17","0","1"
"47376344","100031","132","400",3rd Ave & Bell St,47.614444700000000,-122.344513000000006,"20","19","31","2"
"47376344","100031","132","420",3rd Ave & Virginia St,47.612438200000000,-122.341110000000000,"20","21","23","3"
"47376344","100031","132","433",3rd Ave & Pike St,47.609069800000000,-122.337288000000001,"20","24","0","4"
"47376344","100031","132","468",3rd Ave & Seneca St,47.606502499999998,-122.334937999999994,"20","26","22","5"
"47376344","100031","132","490",3rd Ave & Cherry St,47.603580500000000,-122.332274999999996,"20","29","2","6"
"47376344","100031","132","515",3rd Ave S & S Main St,47.600238800000000,-122.330376000000001,"20","32","0","7"
"47376344","100031","132","30670",4th Ave S & Edgar Martinez Dr S,47.590339700000001,-122.329268999999996,"20","34","3","8"
"47376284","100030","131","30635",4th Ave S & S Royal Brougham Way,47.593341799999997,-122.328957000000003,"21","45","0","45"
"47376368","100030","131","7430",Wall St & 5th Ave,47.617431600000003,-122.345344999999995,"5","38","0","1"
"47376368","100030","131","400",3rd Ave & Bell St,47.614444700000000,-122.344513000000006,"5","40","10","2"
"47376368","100030","131","420",3rd Ave & Virginia St,47.612438200000000,-122.341110000000000,"5","41","45","3"
"47376368","100030","131","433",3rd Ave & Pike St,47.609069800000000,-122.337288000000001,"5","44","0","4"
"47376368","100030","131","468",3rd Ave & Seneca St,47.606502499999998,-122.334937999999994,"5","46","4","5"
"47376368","100030","131","490",3rd Ave & Cherry St,47.603580500000000,-122.332274999999996,"5","48","25","6"
"47376368","100030","131","515",3rd Ave S & S Main St,47.600238800000000,-122.330376000000001,"5","51","0","7"
"47376368","100030","131","30670",4th Ave S & Edgar Martinez Dr S,47.590339700000001,-122.329268999999996,"5","53","44","8"
"41986538","100028","13","3037",Seneca St & 8th Ave,47.609279600000001,-122.330169999999995,"6","58","0","1"
"41986538","100028","13","1260",Seneca St & 6th Ave,47.608741799999997,-122.331481999999994,"6","58","35","2"
"41986538","100028","13","1250",Seneca St & 4th Ave,47.607421899999999,-122.334609999999998,"7","0","0","3"
"41986538","100028","13","575",3rd Ave & Pike St,47.609642000000001,-122.337585000000004,"7","2","0","4"
"41986538","100028","13","600",3rd Ave & Virginia St,47.612995099999999,-122.341742999999994,"7","4","3","5"
"41986538","100028","13","605",3rd Ave & Bell St,47.615119900000003,-122.345337000000001,"7","5","34","6"
"41986538","100028","13","1690",3rd Ave & Vine St,47.616870900000002,-122.348297000000002,"7","6","48","7"
"41986538","100028","13","2320",1st Ave & Broad St,47.617206600000003,-122.352858999999995,"7","8","49","8"
"41986538","100028","13","2330",1st Ave N & Denny Way,47.618904100000002,-122.355362000000000,"7","10","0","9"
"41986538","100028","13","2360",1st Ave N & Republican St,47.623187999999999,-122.355309000000005,"7","11","45","10"
"41986539","100028","13","2672",Queen Anne Ave N & W Mercer St,47.624061599999997,-122.356812000000005,"7","49","0","14"
"41986539","100028","13","2180",Queen Anne Ave N & W Harrison St,47.621833799999997,-122.356819000000002,"7","49","57","15"
"41986539","100028","13","2200",Queen Anne Ave N & W John St,47.619213100000003,-122.356849999999994,"7","51","5","16"
"41986539","100028","13","2244",Denny Way & 2nd Ave N,47.618515000000002,-122.351699999999994,"7","52","49","17"
"41986539","100028","13","2220",3rd Ave & Cedar St,47.616874699999997,-122.348624999999998,"7","54","0","18"
"47378651","100024","125","1565",Columbia St & Western Ave,47.602745100000000,-122.336074999999994,"5","38","43","3"
"47378651","100024","125","539",3rd Ave & Marion St,47.604804999999999,-122.333160000000007,"5","39","26","4"
"47378651","100024","125","558",3rd Ave & Seneca St,47.607051800000001,-122.335212999999996,"5","40","0","5"
"47378651","100024","125","578",3rd Ave & Pike St,47.610485099999998,-122.338356000000005,"5","41","11","6"
"47378651","100024","125","433",3rd Ave & Pike St,47.609069800000000,-122.337288000000001,"5","44","21","7"
"47378651","100024","125","468",3rd Ave & Seneca St,47.606502499999998,-122.334937999999994,"5","45","14","8"
"47378651","100024","125","481",3rd Ave & Columbia St,47.604263300000000,-122.332901000000007,"5","46","0","9"
"47378651","100024","125","1558",Columbia St & Alaskan Way,47.602470400000001,-122.337119999999999,"5","46","44","10"
"47376668","100023","124","21765",6th Ave S & S Atlantic St,47.590885200000002,-122.325867000000002,"6","20","47","42"
"47376668","100023","124","30635",4th Ave S & S Royal Brougham Way,47.593341799999997,-122.328957000000003,"6","22","0","43"
"47376705","100023","124","2220",3rd Ave & Cedar St,47.616874699999997,-122.348624999999998,"6","45","0","1"
"47376705","100023","124","400",3rd Ave & Bell St,47.614444700000000,-122.344513000000006,"6","46","40","2"
"47376705","100023","124","420",3rd Ave & Virginia St,47.612438200000000,-122.341110000000000,"6","48","3","3"
"47376705","100023","124","433",3rd Ave & Pike St,47.609069800000000,-122.337288000000001,"6","50","0","4"
"47376705","100023","124","468",3rd Ave & Seneca St,47.606502499999998,-122.334937999999994,"6","52","4","5"
"47376705","100023","124","490",3rd Ave & Cherry St,47.603580500000000,-122.332274999999996,"6","54","25","6"
"47376705","100023","124","515",3rd Ave S & S Main St,47.600238800000000,-122.330376000000001,"6","57","0","7"
"47376705","100023","124","21833",6th Ave S & S Royal Brougham Way,47.592048599999998,-122.326072999999994,"7","1","0","8"
"47419577","100019","120","1565",Columbia St & Western Ave,47.602745100000000,-122.336074999999994,"6","10","3","39"
"47419577","100019","120","548",3rd Ave & Madison St,47.605541199999998,-122.333832000000001,"6","11","0","40"
"47419577","100019","120","570",3rd Ave & Union St,47.608688399999998,-122.336699999999993,"6","12","36","41"
"47419577","100019","120","590",3rd Ave & Pine St,47.611137399999997,-122.338950999999994,"6","13","51","42"
"47419577","100019","120","600",3rd Ave & Virginia St,47.612995099999999,-122.341742999999994,"6","15","0","43"
"47419580","100019","120","420",3rd Ave & Virginia St,47.612438200000000,-122.341110000000000,"7","4","0","1"
"47419580","100019","120","433",3rd Ave & Pike St,47.609069800000000,-122.337288000000001,"7","6","0","2"
"47419580","100019","120","468",3rd Ave & Seneca St,47.606502499999998,-122.334937999999994,"7","8","8","3"
"47419580","100019","120","481",3rd Ave & Columbia St,47.604263300000000,-122.332901000000007,"7","10","0","4"
"47419580","100019","120","1558",Columbia St & Alaskan Way,47.602470400000001,-122.337119999999999,"7","10","41","5"
"49188777","100018","12","1420",Madison St & 2nd Ave,47.605327600000003,-122.334923000000003,"7","2","0","1"
"49188777","100018","12","1890",Marion St & 1st Ave,47.604145099999997,-122.335021999999995,"7","4","17","2"
"49188777","100018","12","1580",Marion St & 2nd Ave,47.604534100000002,-122.334075999999996,"7","5","0","3"
"49188777","100018","12","1590",Marion St & 4th Ave,47.605461099999999,-122.331862999999998,"7","6","9","4"
"49188777","100018","12","1300",Madison St & 8th Ave,47.608028400000002,-122.328079000000002,"7","9","0","5"
"49188777","100018","12","13291",Madison St & Boren Ave,47.609424599999997,-122.324744999999993,"7","10","43","6"
"49188777","100018","12","13292",Madison St & Summit Ave,47.610347699999998,-122.322533000000007,"7","11","52","7"
"49188777","100018","12","13293",E Madison St & Broadway,47.611267099999999,-122.320335000000000,"7","13","0","8"
"49188777","100018","12","3156",E Madison St & 12th Ave,47.612480200000000,-122.317429000000004,"7","13","57","9"
"49188808","100018","12","13282",E Madison St & Broadway Ct,47.611625699999998,-122.319855000000004,"6","55","0","13"
"49188808","100018","12","13283",Madison St & Summit Ave,47.610424000000002,-122.322722999999996,"6","56","20","14"
"49188808","100018","12","13284",Madison St & Boren Ave,47.609211000000002,-122.325637999999998,"6","57","41","15"
"49188808","100018","12","13285",Madison St & 9th Ave,47.608333600000002,-122.327736000000002,"6","58","40","16"
"49188808","100018","12","1400",Madison St & 5th Ave,47.606636000000002,-122.331778999999997,"7","0","33","17"
"49188808","100018","12","1415",Madison St & 4th Ave,47.605983700000003,-122.333365999999998,"7","1","16","18"
"49188808","100018","12","1420",Madison St & 2nd Ave,47.605327600000003,-122.334923000000003,"7","2","0","19"
"47799032","100011","111","250",2nd Ave & Bell St,47.613704700000000,-122.345253000000000,"15","33","0","1"
"47799032","100011","111","280",2nd Ave & Stewart St,47.610614800000000,-122.340248000000003,"15","34","53","2"
"47799032","100011","111","320",2nd Ave & Seneca St,47.606212599999999,-122.336205000000007,"15","37","0","3"
"47799032","100011","111","360",2nd Ave & Cherry St,47.603019699999997,-122.333281999999997,"15","40","13","4"
"47799032","100011","111","375",2nd Ave Ext S & Yesler Way,47.601253499999999,-122.331688000000000,"15","42","0","5"
"47799039","100011","111","620",4th Ave S & S Jackson St,47.598812100000004,-122.328902999999997,"6","19","0","64"
"47799039","100011","111","628",4th Ave S & S Washington St,47.601219200000003,-122.328902999999997,"6","20","14","65"
"47799039","100011","111","648",4th Ave & Cherry St,47.604320500000000,-122.331169000000003,"6","22","1","66"
"47799039","100011","111","670",4th Ave & Seneca St,47.607498200000002,-122.334075999999996,"6","23","55","67"
"47799039","100011","111","700",4th Ave & Pike St,47.610950500000001,-122.337249999999997,"6","26","0","68"
"47799039","100011","111","1040",Olive Way & 6th Ave,47.613025700000001,-122.336333999999994,"6","29","45","69"
"47799039","100011","111","992",Howell St & 9th Ave,47.614635499999999,-122.333259999999996,"6","32","48","70"
"47799039","100011","111","1010",Howell St & Minor Ave,47.616710699999999,-122.330596999999997,"6","36","0","71"
"47418767","100009","11","1085",Pine St & 9th Ave,47.613376600000002,-122.332603000000006,"6","15","0","1"
"47418767","100009","11","1110",Pine St & 5th Ave,47.611766799999998,-122.336455999999998,"6","17","8","2"
"47418767","100009","11","1120",Pine St & 4th Ave,47.611103100000001,-122.338027999999994,"6","18","0","3"
"47418767","100009","11","1180",Pike St & 4th Ave,47.610073100000001,-122.336838000000000,"6","21","0","4"
"47418767","100009","11","1000",Pine St & 9th Ave,47.613414800000001,-122.332138000000000,"6","23","58","5"
"47418767","100009","11","11140",E Pine St & Summit Ave,47.615158100000002,-122.324637999999993,"6","26","55","6"
"47418767","100009","11","11150",E Pine St & Harvard Ave,47.615161899999997,-122.321617000000003,"6","28","0","7"
"47418827","100009","11","11080",E Pine St & Broadway,47.615302999999997,-122.321494999999999,"6","11","0","20"
"47418827","100009","11","11090",E Pine St & Belmont Ave,47.615287799999997,-122.325126999999995,"6","12","14","21"
"47418827","100009","11","11100",E Pine St & Bellevue Ave,47.615299200000003,-122.327270999999996,"6","12","57","22"
"47418827","100009","11","1085",Pine St & 9th Ave,47.613376600000002,-122.332603000000006,"6","15","0","23"
"47418596","100005","106","3600",S Jackson St & 12th Ave S,47.599269900000003,-122.317757000000000,"6","32","0","58"
"47418596","100005","106","1500",S Jackson St & 8th Ave S,47.599266100000001,-122.322327000000001,"6","33","30","59"
"47418596","100005","106","1510",S Jackson St & Maynard Ave S,47.599262199999998,-122.325469999999996,"6","34","31","60"
"47418596","100005","106","844",5th Ave S & S Weller St,47.597614299999996,-122.327781999999999,"6","36","0","61"
"47418597","100005","106","1471",S Jackson St & 5th Ave S,47.599128700000001,-122.328040999999999,"6","30","0","1"
"47418597","100005","106","1480",S Jackson St & Maynard Ave S,47.599117300000003,-122.324569999999994,"6","30","37","2"
"47418597","100005","106","1490",S Jackson St & 8th Ave S,47.599117300000003,-122.322044000000005,"6","31","4","3"
"49783274","100003","101","99267",SODO Busway & S Royal Brougham Way,47.592014300000002,-122.327301000000006,"8","26","0","16"
"49783274","100003","101","30635",4th Ave S & S Royal Brougham Way,47.593341799999997,-122.328957000000003,"8","26","37","17"
"49783274","100003","101","620",4th Ave S & S Jackson St,47.598812100000004,-122.328902999999997,"8","28","0","18"
"49783274","100003","101","640",4th Ave & James St,47.603012100000001,-122.329978999999994,"8","29","46","19"
"49783274","100003","101","660",4th Ave & Madison St,47.606006600000001,-122.332710000000006,"8","31","11","20"
"49783274","100003","101","690",4th Ave & Union St,47.609836600000001,-122.336219999999997,"8","33","0","21"
"49783274","100003","101","1190",Pike St & 6th Ave,47.611034400000001,-122.334525999999997,"8","34","23","22"
"49783274","100003","101","11130",Pike St & Convention Pl,47.612369500000000,-122.331360000000004,"8","36","0","23"
"49783284","100003","101","1215",Union St & 5th Ave,47.609828899999997,-122.334511000000006,"17","37","0","1"
"49783284","100003","101","1230",Union St & 4th Ave,47.609081300000000,-122.336287999999996,"17","37","47","2"
"49783284","100003","101","340",2nd Ave & Marion St,47.604465500000003,-122.334625000000003,"17","41","0","3"
"49783284","100003","101","361",2nd Ave & James St,47.602477999999998,-122.332808999999997,"17","42","32","4"
"49783284","100003","101","390",2nd Ave Ext S & S Jackson St,47.599266100000001,-122.329857000000004,"17","45","0","5"
"49783284","100003","101","99271",SODO Busway & S Royal Brougham Way,47.591812099999999,-122.327468999999994,"17","47","7","6"
"41979571","100002","10","29301",E John St & 12th Ave E,47.620002700000001,-122.317535000000007,"5","9","17","8"
"41979571","100002","10","29262",E John St & 10th Ave E,47.619979899999997,-122.319991999999999,"5","10","0","9"
"41979571","100002","10","29266",E Olive Way & Summit Ave E,47.619152100000001,-122.325119000000001,"5","11","47","10"
"41979571","100002","10","13441",Bellevue Ave & E Olive Way,47.616733600000003,-122.326888999999994,"5","13","6","11"
"41979571","100002","10","11100",E Pine St & Bellevue Ave,47.615299200000003,-122.327270999999996,"5","14","0","12"
"41979571","100002","10","1085",Pine St & 9th Ave,47.613376600000002,-122.332603000000006,"5","16","0","13"
"41979572","100002","10","1085",Pine St & 9th Ave,47.613376600000002,-122.332603000000006,"5","16","0","1"
"41979572","100002","10","1110",Pine St & 5th Ave,47.611766799999998,-122.336455999999998,"5","18","50","2"
"41979572","100002","10","1120",Pine St & 4th Ave,47.611103100000001,-122.338027999999994,"5","20","0","3"
"41979572","100002","10","1180",Pike St & 4th Ave,47.610073100000001,-122.336838000000000,"5","24","0","4"
"41979572","100002","10","11130",Pike St & Convention Pl,47.612369500000000,-122.331360000000004,"5","26","37","5"
"41979572","100002","10","11132",Pike St & Boren Ave,47.613578799999999,-122.328445000000002,"5","28","0","6"
"41979572","100002","10","13460",Bellevue Ave & E Olive St,47.616508500000002,-122.326690999999997,"5","29","51","7"
"41979572","100002","10","29268",E Olive Way & Summit Ave E,47.619129200000003,-122.324883000000000,"5","31","22","8"
"41979572","100002","10","29270",E John St & Broadway  E,47.619846299999999,-122.320473000000007,"5","33","0","9"
"49189391","100001","1","3600",S Jackson St & 12th Ave S,47.599269900000003,-122.317757000000000,"6","2","0","1"
"49189391","100001","1","1500",S Jackson St & 8th Ave S,47.599266100000001,-122.322327000000001,"6","2","52","2"
"49189391","100001","1","1510",S Jackson St & Maynard Ave S,47.599262199999998,-122.325469999999996,"6","3","27","3"
"49189391","100001","1","1530",S Jackson St & 5th Ave S,47.599266100000001,-122.328384000000000,"6","4","0","4"
"49189391","100001","1","1610",Prefontaine Pl S & Yesler Way,47.601657899999999,-122.329941000000005,"6","5","43","5"
"49189391","100001","1","538",3rd Ave & Columbia St,47.604190799999998,-122.332588000000001,"6","7","27","6"
"49189391","100001","1","558",3rd Ave & Seneca St,47.607051800000001,-122.335212999999996,"6","9","19","7"
"49189391","100001","1","575",3rd Ave & Pike St,47.609642000000001,-122.337585000000004,"6","11","0","8"
"49189391","100001","1","600",3rd Ave & Virginia St,47.612995099999999,-122.341742999999994,"6","13","3","9"
"49189391","100001","1","605",3rd Ave & Bell St,47.615119900000003,-122.345337000000001,"6","14","34","10"
"49189391","100001","1","1690",3rd Ave & Vine St,47.616870900000002,-122.348297000000002,"6","15","48","11"
"49189391","100001","1","2320",1st Ave & Broad St,47.617206600000003,-122.352858999999995,"6","17","49","12"
"49189391","100001","1","2330",1st Ave N & Denny Way,47.618904100000002,-122.355362000000000,"6","19","0","13"
"49189391","100001","1","2360",1st Ave N & Republican St,47.623187999999999,-122.355309000000005,"6","21","0","14"
"49189393","100001","1","2672",Queen Anne Ave N & W Mercer St,47.624061599999997,-122.356812000000005,"6","19","0","15"
"49189393","100001","1","2180",Queen Anne Ave N & W Harrison St,47.621833799999997,-122.356819000000002,"6","19","57","16"
"49189393","100001","1","2200",Queen Anne Ave N & W John St,47.619213100000003,-122.356849999999994,"6","21","5","17"
"49189393","100001","1","2244",Denny Way & 2nd Ave N,47.618515000000002,-122.351699999999994,"6","22","49","18"
"49189393","100001","1","2220",3rd Ave & Cedar St,47.616874699999997,-122.348624999999998,"6","24","0","19"
